,node_id,name,ref,operator,voltage,longitude,latitude,country_code
0,31659461,Bremervörde Alte Straße 4 / Parkplatz,51219,EWE,,9.14705953776719,53.4853628740505,DE
1,124440614,ICA Maxi,,Gavle Energi,,17.1469335369556,60.647636385721796,SE
2,251111551,TH-Nr. 12344,,,,11.701228245994699,48.075202184771996,DE
3,254069835,Umspannstation Ersingen Raiffeisenstraße,,EnBW,,8.64706165237116,48.928918465303894,DE
4,254069837,Umspannstation Ersingen Penny-Markt,,EnBW,,8.64736339647509,48.928990940397796,DE
5,254069884,Umspannstation Ersingen Heinestraße,,EnBW,,8.63956898424937,48.928887657455206,DE
6,254069931,KV Ersingen Kirchbergsiedlung,,,,8.63481995066835,48.93099747901339,DE
7,254070051,Umspannstation Ersingen Laierbergstraße,,EnBW,,8.63286701324067,48.9277760833947,DE
8,255273868,Station Ersingen Untere Eisinger Straße,,EnBW,,8.63825474898871,48.93289133811479,DE
9,255273914,Umspannstation Ersingen Wilferdinger Straße,,EnBW,,8.63174573610303,48.9325493499273,DE
10,255371191,Avans Herrgård,,Gavle Energi,,17.161548407976,60.6946152690718,SE
11,255371261,Brynjan,,Gavle Energi,,17.16796210961,60.701399153882896,SE
12,255371360,Pipstocken,,Gavle Energi,,17.1615887423322,60.6988633936372,SE
13,255371426,Idet,,Gavle Energi,,17.151694158803803,60.701598468179704,SE
14,255371464,Stigshöjden,,Gavle Energi,,17.1464636282305,60.7055375513773,SE
15,255371562,Klippet,,Gavle Energi,,17.147629641469198,60.7012116636779,SE
16,255371564,Vältan,,Gavle Energi,,17.1488727301594,60.699673587281104,SE
17,255893173,Bäckebro,,,,17.1232759547906,60.6822563684694,SE
18,255893184,Norrtull,,Gavle Energi,,17.135761908419198,60.680998557581205,SE
19,255893255,Konduktören,,Gavle Energi,,17.1336707202693,60.6838300693927,SE
20,256110717,20kV Umspannstation Ersingen Häldenstraße,,EnBW,,8.63440969007809,48.935422568004796,DE
21,256238553,Urfjället,,Gavle Energi,,17.179909792720302,60.661042472737705,SE
22,256238554,Svingården,,Gavle Energi,,17.1825687161298,60.6626315593674,SE
23,256238555,Utjorden 2,,Gavle Energi,,17.185448265773,60.6626768927845,SE
24,256238717,Kålroten,,Gavle Energi,,17.1598988316197,60.6616317872502,SE
25,256238791,Lokstallet,,Gavle Energi,,17.1755984183457,60.6626837588111,SE
26,256239567,Sandåker,,Gavle Energi,,17.200006812425098,60.6625415525393,SE
27,256308226,Eriksvägen,,Gavle Energi,,17.0998444785827,60.6799889742694,SE
28,256558523,Sofiedalsskolan,,Gavle Energi,,17.004170038068303,60.6380220752629,SE
29,256591442,Hyacinten,,Gavle Energi,,17.1260439336756,60.6659404670549,SE
30,256591448,Raspen,,Gavle Energi,,17.137738291875802,60.65831006745629,SE
31,259594862,Milltown 110kV,,ESB Networks,,-6.251412623619809,53.3175948626853,IE
32,266329351,5150,,e-on,,11.6653786389622,48.0696159944427,DE
33,267695172,Skogsvägen,,Gavle Energi,,17.0571800721418,60.674486274261106,SE
34,267695188,Valängen,,Gavle Energi,,17.0731728689765,60.677767172390396,SE
35,267695224,Fabian Månssons väg,,Gavle Energi,,17.0684320100646,60.6731010915125,SE
36,267695232,Kraftvägen,,Gavle Energi,,17.0589331344188,60.66824167911321,SE
37,268218346,Hambergen Bremer Straße,64275,EWE,,8.83463814819593,53.2963937666918,DE
38,268253680,Trafostation Erntefestplatz,,Osterholzer Stadtwerke,,8.80618796415869,53.224785468030795,DE
39,269336685,Ö Hamnpiren,,,,17.171790909014,60.67994797618629,SE
40,272864157,Vollersode-Wallhöfen Am Funkturm,64778,EWE,,8.86934527785011,53.320672887745104,DE
41,274285031,Jordåsen,,Gavle Energi,,17.049177340601698,60.5506137582606,SE
42,274286111,Vindruvan,,Gavle Energi,,16.9726556107654,60.6438728825574,SE
43,274286117,Jansvreten,,Gavle Energi,,16.960629774225303,60.6314482736014,SE
44,274286144,Furugården,,Gavle Energi,,17.0064169940884,60.6445535814606,SE
45,274286265,Stenhuggarvägen,,Gavle Energi,,17.0168526329125,60.646278582571796,SE
46,275374392,Hambergen Sandstraße,64268,EWE,,8.829026552279089,53.282477653711794,DE
47,276981954,Maurin,128,ERDF,,-0.517935894146974,43.8960873628707,FR
48,277842110,Norråkern,,Gavle Energi,,17.1634706230209,60.6550947618644,SE
49,277842541,Lövens Tä,,Gavle Energi,,17.1614121335474,60.6526118808538,SE
50,277842542,Hackstenen,,Gavle Energi,,17.170843635546902,60.65301027646339,SE
51,277842569,Västeråkern,,Gavle Energi,,17.1588257940129,60.650657694226894,SE
52,277842701,Utängarna,,Gavle Energi,,17.181469178222002,60.6567843780571,SE
53,277842702,Utjorden,,Gavle Energi,,17.1852556669761,60.6607543917737,SE
54,279283423,Måsen,,Gavle Energi,,17.1555735333582,60.68166307670239,SE
55,279790660,Varvsudden,,Gavle Energi,,17.2818321956989,60.6717747659554,SE
56,279819042,Lindbacka,,Gavle Energi,,17.185865712885597,60.704861261833706,SE
57,280424736,Templin Sportplatz,,E-ON edis,,13.512603042655098,53.121284680908296,DE
58,280431844,Templin Gasregler,,E-ON edis,,13.5140370233431,53.1144033842791,DE
59,280675925,Herzfelde KSL,,EON_edis,,13.608091891231801,53.195325366728,DE
60,280983744,Mittenwalde Herzfelder Damm,,EON_edis,,13.645437283043899,53.1870148822402,DE
61,280984453,Mittenwalde Dorf,,EON_edis,,13.663620172541302,53.1851010563891,DE
62,281699922,Ängsberg 2,,Gavle Energi,,16.991897344488198,60.6244322614952,SE
63,281700123,Mackmyra Bruk,,Gavle Energi,,16.9655131957729,60.6397100763729,SE
64,281838151,Pepparriskan,,Gavle Energi,,17.1290082842817,60.65170086643379,SE
65,286072006,DEL Elbinger Straße,,,,8.633611447116621,53.035847757590396,DE
66,286072461,DEL Am Tierpark,,,,8.63158466817259,53.03822735975929,DE
67,286366129,Görlitzer Straße,,,,8.63115662093971,53.033623277428894,DE
68,286369074,DEL Yorckstraße,,,,8.627949635375401,53.020563891753795,DE
69,286369283,Gneisenauweg,,,,8.62891765992557,53.0247461457844,DE
70,286369908,Annenheide Burk,,,,8.64191439562468,53.02089945531839,DE
71,286371332,Delmenhorst Annenheider Straße,,,,8.646523471684441,53.02243798895,DE
72,286371540,DEL Annenweg Löschteich,,,,8.64624876687056,53.0187516412884,DE
73,286372795,DEL Brendelweg Störmer,,,,8.6395368245622,53.023387947846295,DE
74,286372963,Jütlandstraße,,,,8.637657189661711,53.0254270927565,DE
75,286373063,Düsternortstraße,,,,8.640043294719389,53.0325505918703,DE
76,286374750,Bungerhof Schule,,EWE,,8.64297279069243,53.0745838627646,DE
77,286374782,Am Sassengraben,,EWE,,8.63527961859923,53.0673252935979,DE
78,286374884,HANSA NORD,,EWE,,8.63061044524696,53.061734252213,DE
79,286375271,DEL Lessingstraße Nr. 73,,EWE,,8.62821571636256,53.0662370909312,DE
80,286375419,Friedrich-Ebert-Allee,,,,8.63710778003394,53.04628329395351,DE
81,286376301,Dehmelstraße,,EWE,,8.63705909134554,53.07074215762629,DE
82,286376435,ISA Cramerstraße,,,,8.63775151276654,53.043935460451294,DE
83,286376450,25881,,,,8.63772573111789,53.0439870910492,DE
84,286580474,DEL Am Moorkamp,,,,8.62712309548248,53.0357317827934,DE
85,286597094,DEL Schule Adelheide,,,,8.61363318469239,53.0237677418381,DE
86,286599550,Im Delmegrund,,,,8.61832499558982,53.0332567511699,DE
87,286600253,Brendelweg,,,,8.62286544036187,53.0324515709033,DE
88,286601820,DEL Försterstraße,,,,8.629949554692429,53.0288784527431,DE
89,286603528,Rethkampplatz U14,,,,8.62808707761387,53.02796475879539,DE
90,286603685,DEL Schulzentrum Süd,,,,8.62760638910534,53.0275053652699,DE
91,286606152,DEL Feldhusstraße,,,,8.65160155815404,53.01798136990929,DE
92,286606747,DEL Steller Straße Hoch-Tief,,,,8.65787575142444,53.016045093136206,DE
93,286606815,Del. Steller Straße Müllsortieranlage,,,,8.65767839155652,53.0161431790196,DE
94,286606901,DEL Steller Straße Kunststoffwerk,,,,8.656390836259801,53.016907376605204,DE
95,286606905,DEL Steller Straße Kunststoffwerk,,,,8.656828675129269,53.0166698666773,DE
96,286607991,Hasport ISA,,,,8.661137354558031,53.0276923540988,DE
97,286610259,DEL Kastanienplatz,,EWE,,8.65358737392111,53.059225243392,DE
98,286611412,DEL Eibenstraße,,EWE,,8.653638847386901,53.065719051460704,DE
99,286612711,Hasbergen Delmestraße,,EWE,,8.65817066833222,53.0735114407955,DE
100,286613278,Nordenhamer Straße 142,,EWE,,8.648574145815031,53.0625284667936,DE
101,286613844,Birkenstraße,,EWE,,8.6414594887648,53.06055094681889,DE
102,286614386,Arthur-Fitger-Straße,,,,8.63409518989712,53.045992049439,DE
103,288328525,DEL Asternstraße,,EWE,,8.65061754359182,53.053398758619394,DE
104,288336328,Friedensstraße,,EWE,,8.62585548278506,53.0728903510309,DE
105,288337686,Dwostraße,,EWE,,8.623006296198419,53.0652760922736,DE
106,288337785,DEL Wilhelm-Raabe-Straße,,EWE,,8.61899756424304,53.064102492907,DE
107,288338326,Dwostraße,,EWE,,8.61767578313398,53.0621321710956,DE
108,288339837,DEL Schönemoorer Straße,,EWE,,8.62710854277488,53.062369376723204,DE
109,288340750,DEL Hasporter Damm Bahnhof,,,,8.64567375525719,53.0380634807136,DE
110,288597109,Umspannwerk,,,,8.93660852121066,48.46629234986651,DE
111,289533122,P 5 Ochus,,,,-3.00042631905555,48.840989487821105,
112,289952829,École de Kerity,,,,-3.0231939402685,48.7680937847739,FR
113,290260894,Quai Armand Dayot,P107,,,-3.0419697178534104,48.7808188476196,FR
114,290773118,Les Quais,P5,,,-3.04506656996389,48.7800149906658,FR
115,290810039,Lot Guerland,P85,,,-3.0668788328721805,48.771407586970504,FR
116,290810084,Salle des fêtes,P32,,,-3.0747307372760804,48.7704255472923,FR
117,291699327,Niederwerrn III,,,,10.1768567384469,50.062651585531995,DE
118,292738087,Berner Straße 2,,Stadtwerke Sindelfingen,,8.934427860858461,48.690990760381204,DE
119,292738108,Aidlinger Straße,,Stadtwerke Sindelfingen,,8.9417496694132,48.691387235742596,DE
120,292765029,Lupinenstraße II,,Netze BW,,8.945502920501779,48.6929803402312,DE
121,292765032,Lupinenstraße I,,Netze BW,,8.94565967651886,48.6926880633538,DE
122,292798223,Löballgraben,01042,SWE_Netz,,11.031812140432502,50.96937408570021,DE
123,293552030,Jonelière 3,,,,-1.5450858495158797,47.2513172670556,FR
124,294589056,Allgäuer Straße,,Stadtwerke Sindelfingen,,8.93584674984973,48.6928340537611,DE
125,295774842,Franciscains,,,,-1.5572830846121202,47.2552712425607,FR
126,297779295,Trafostation Bahnhof Wustermark,,DB Energie GmbH,,12.9781082333813,52.5533865905669,DE
127,297938481,Kundenstation DHL,,,,12.978146411780902,52.5579878817027,DE
128,297981181,Am Umspannwerk,,,,12.9427857577575,52.55955068272821,DE
129,299537179,Trafostation,2808,Osterholzer Stadtwerke,,8.75551911937863,53.18336764448521,DE
130,300316492,Umspannstation Dagerheim Berggasse,,Energieversorgung Schwaben AG,,8.9498364832639,48.693179459923805,DE
131,300449974,Leuchtenburg Albrechts Park,64697,,,8.65053642572166,53.1915693624302,DE
132,301079651,Haus Flemming,,Stadtwerke Quedlinburg,,11.1877589551034,51.8002456486473,DE
133,301115667,Walperloh (Allendestraße),Schmalkalden 40,Thüringer_Energienetze,,10.4717792157781,50.722289039839104,DE
134,301246701,ST Birkenweiherstraße,,,,9.056049509534,50.1644976856902,DE
135,301609680,Feldrennach Industrie,,,,8.517774589544691,48.84508717443789,DE
136,301889195,Schwann Hubweg,,,,8.5543547963978,48.8492596584056,DE
137,303289594,Neuenbürg Scheffelstraße,,,,8.583104388919232,48.8483215862381,DE
138,303837056,Ritterkampstraße,,Stadtwerke Bielefeld GmbH,,8.624825294817231,52.0127188920679,DE
139,304881519,Schillerslage / Wolfskuhlen,,eon,,9.99090233053063,52.4640175912522,DE
140,306380981,Ehmener Straße,,EON_Avacon,,10.675827669810099,52.371407382957706,DE
141,307792451,Station Holzbüttgen,,,,6.6302811371159995,51.216229592411395,DE
142,308351648,Feldrennach Am Birkenbusch,,EnBW Regional AG,,8.534684656116019,48.858496682290706,DE
143,308647725,Arnbach Zwerchweg 57,,EnBW Regional AG,,8.56810162535915,48.8573984360824,DE
144,308854550,Dunsley Drive S/S,11151,,,-2.16092984513127,52.4832664431367,GB
145,309187351,WOEB 403 Friedenstal,,,,9.097085450027869,51.8922045888093,DE
146,309502802,Im Radhop,,eon / Stadtwerke Burgdorf,,10.009437718945499,52.463022794517705,DE
147,309591423,WOEB 404 Hohler Weg,,EON Westertal,,9.1000613889011,51.898196856407296,DE
148,310646803,Dennach Dobler Straße,,Energie-Versorgung Schwaben AG,,8.54925955210627,48.819868236454,DE
149,310700803,Dennach Schwabstichstraße,,,,8.56067031217127,48.822957540740205,DE
150,310859315,Dobel Panoramastraße,,EnBW,,8.50133550967683,48.80111528283871,DE
151,310900941,Wurbauerkogel Bergstation,,,,14.345040734739802,47.727187749740104,AT
152,311142626,Conweiler Benzstraße,,EnBW Regional AG,,8.52272134231975,48.8475570583156,DE
153,311142683,Feldrennach Gässlesweg,,Energie-Versorgung Schwaben AG,,8.517604718124469,48.8485144750313,DE
154,311166739,Kundenanlage,,EnBW Regional AG,,8.52134799791339,48.8501088678231,DE
155,311649080,Oberdürrbach 1,,,,9.9240969584704,49.8255787564273,DE
156,311971610,WOEB 402 Flurstraße,,EON Westertal,,9.102809784512859,51.90018358831801,DE
157,312392308,Buchenweg,,,,14.220318640692598,48.02750663850921,AT
158,312755419,Drumlinen,,,,20.326604028418,63.828856593758005,SE
159,313342431,WOEB 401 Parkstraße,,EON Westertal,,9.10048485472603,51.89530678675239,DE
160,315049045,Fa. Wiesmann,,Stadtwerke Dülmen,,7.29073879350731,51.844929453306705,DE
161,315568858,Umspannstation Altheim Schleifweg,,,,9.80152462272967,48.1844663902886,DE
162,316021224,Sint-Pietersstraat Gingelom,064046,,,5.13457963135542,50.749779860836895,BE
163,317253184,SCHIE409 Wallstraße,,,,9.152081928689169,51.913487582901205,DE
164,318078916,Flyttblocket,,,,20.327895087144398,63.823784588269504,SE
165,319991847,Waller See,,BS.Energy,,10.4776452145834,52.3269998671218,DE
166,320621268,Persbacka,,,,17.1648506149604,60.7127567785808,SE
167,320664994,P13 BROQUERE POUZAC,,,,0.142737357912529,43.08230788865829,FR
168,320684603,P 7 Communal,,,,0.108693274769553,43.1226788517779,FR
169,320722847,P5 LAPOUTGE,,,,0.128157521188213,43.1104565434317,FR
170,320732438,Dannenwalde Dorf,,E.ON edis,,13.184894213410198,53.079514361017296,DE
171,320748731,P9 ARRIBORD,,,,0.13553547444821498,43.080755261088704,FR
172,320928441,SCHI402 Im Emmertal,,,,9.15884202069676,51.9178124414604,DE
173,321579873,Am Hülsebrink,,,,9.25920234322776,52.3591242785521,DE
174,321579911,Meierhof 1,,,,9.254351710188098,52.3587333919536,DE
175,321635720,Safraanberg Sint-Truiden,061097,,,5.2320849282504405,50.7838045880436,BE
176,321646647,O.V. Rijksweg Nr. 6 Sint-Truiden,061017,,,5.14683974852156,50.81211997813379,BE
177,321646648,Tiensesteenweg Grens Sint-Truiden,060148,,,5.153259828194099,50.8132498575173,BE
178,321655199,Jovi Fruit Sint-truiden,060007,,,5.16594996888675,50.8085299634646,BE
179,321663628,SCHIE 407 Schloss,,,,9.150098268878779,51.9160883549337,DE
180,321793476,Gutach Schule,,E-Werk Mittelbaden,,8.212974237349309,48.247075568942606,DE
181,321805093,Gutach Friedhof,,Badenwerk,,8.21472289788138,48.2490115658235,DE
182,321957291,Niedernhagen 10,,,,9.25098985506881,52.3617076640006,DE
183,322896546,Kremsmünster Kirchberg,,,,14.1319900835825,48.0603507595304,AT
184,322918525,Oldermannshof,,Stadtwerke Bielefeld GmbH,,8.621276140961209,52.012011781443796,DE
185,323130834,Holzer Straße,,,,10.6160773964968,53.2645032567455,DE
186,324241424,Am Kamp,,,,10.6266477826135,53.2675138683337,DE
187,324619427,Lüneburger Straße,,,,10.621094217864,53.26517724296129,DE
188,329961270,SCHI403 Gartenstraße,,,,9.15853946810907,51.9153207616255,DE
189,330028164,UW Thyrow Trfostation,,EON_edis,,13.3055268169579,52.2337394621529,DE
190,331705093,SIEK 403,,,,9.15173490949492,51.928501784848606,DE
191,333590873,Station Helmstedt 380 kV-Anlage,,EON_Avacon,,10.9973853749785,52.200768063214596,DE
192,334205398,BLOM430 Nederlandstraße,,,,9.10065598378766,51.9308548646699,DE
193,334205737,BLOM898 Am Diestelbach,,,,9.09975982446022,51.928064889428796,DE
194,335169145,Gustav-Steinbrecher-Straße/Schöninger Straße,,EON_Avacon,,11.0046782577811,52.220012081380396,DE
195,335171688,BKB Tagebau,,EON_Avavon,,11.006244650142,52.216101443007794,DE
196,335871717,Unterer Schornsteinweg,,EnBW,,8.684991847433231,49.47529379427521,DE
197,336142403,CRI,,,,-1.5313843854763702,47.2413461724325,FR
198,337147643,BLOM 419,,,,9.100586094858551,51.949387092123295,DE
199,338164984,Rimpar10 910,Rimpar10 910,,,9.95682357241769,49.8475370445154,DE
200,338167298,915,,,,9.949888488592759,49.8545915664254,DE
201,338171434,907,,,,9.965528696678449,49.859560072596,DE
202,340024114,BLOM308 Voechtingstraße,,,,9.09809335977665,51.947204641266794,DE
203,340056896,328013,,,,9.3102824367449,51.83187128940129,DE
204,340148461,404,,,,9.96420691556939,49.816730791708096,DE
205,340149900,408,,,,9.96503507242982,49.8153358481797,DE
206,340307573,Pfauenweg,,,,7.9218526218167495,48.4986622412601,DE
207,340337743,SCHIE 406 Fischerbergstraße,,,,9.15767367183823,51.9106779636778,DE
208,340337810,SCHIE 410 Schubertstraße,,,,9.163790480270858,51.901963989528504,DE
209,340337850,SCHI 408 Beethovenstraße,,,,9.16288084621416,51.90442044046821,DE
210,343093094,Anemonenweg,,E-Werk Mittelbaden,,7.92351315761945,48.4557618769561,DE
211,343106586,Ortsplatz Ohlsdorf,,,,13.7913530600947,47.9605145800325,AT
212,343387170,BLOM 899 Hinter dem Saulsiek,,,,9.11304689565916,51.942558384795504,DE
213,344486093,UP Schaidter-Weg,,Pfalzwerke AG,,8.09154464848151,49.095989049438295,DE
214,345542612,Schaltstation Meilingen,8092,EWR,,10.5741124183361,47.5807650771451,DE
215,345755377,P 121 Pargamou,,,,-4.01034595845434,48.1043061656085,FR
216,345832774,Sandringham Road,312065,,,0.602215654440011,51.34170023903071,GB
217,346075024,DOE 401,,,,8.99857323153088,52.03391994110721,DE
218,346255481,P 157 Le Clos de Lannec’huen,,,,-4.00721532968918,48.0997563403471,FR
219,346981161,P 17 Cimetière,,,,-4.00219635236528,48.1017881930686,FR
220,346982597,P 1 Église,,,,-3.99973362101387,48.1026380690819,FR
221,347138450,P 90 Queneac h Du,,,,-3.99288513478233,48.105586880511105,FR
222,347403833,Church Street City Substation,725,centalnetworks,,-1.9011297886101002,52.4826661415271,GB
223,347403834,Rutland House Substation,01451,centalnetworks,,-1.9012483662276,52.48273605769239,GB
224,347439774,SCHIE899 Am Oelberg 33,,,,9.153423382902949,51.9082791582962,DE
225,347975160,HERR401 Wolfsmorgen,,,,9.03112781810126,51.9207660518469,DE
226,348032042,REEL403 Mühlenstraße,,,,9.029909882239052,51.914890054745904,DE
227,348087629,Bleekenweg,,EON_Avacon,,10.62799175211,52.271079886025895,DE
228,350176663,Cateswell Road,Substation No 6136,,,-1.8443450337126899,52.4400988633687,GB
229,353909879,BLOM 315 Wienkestraße,,,,9.09334432619562,51.953022041199596,DE
230,356319490,BLOM421 Pankower Straße,,,,9.10368869618684,51.944490548808204,DE
231,356342096,BLOM409 Tempelhofer Straße,,,,9.10768036015183,51.9419874468501,DE
232,356712479,BLOM 411 Reinickendorfer Straße,,,,9.10502781478088,51.93883104228371,DE
233,356717049,BLOM403 Märkische Straße,,,,9.10219057578752,51.941983459673004,DE
234,356918342,Prinz-Eugen-Straße,,E-Werk,,7.95451895880847,48.4786364465815,DE
235,359034663,Blankenheimer Straße,,enviaN,,11.484587387972901,51.5294806696317,DE
236,359729124,Odastraße,,EON_Avacon,,10.0345676398611,51.870675061605304,DE
237,359729299,Neustadt,,EON_Avacon,,10.029606693704599,51.87218719073629,DE
238,359903252,Eulerstraße 8,,,,6.982249150271589,51.4592649429953,DE
239,360660833,Neue Straße,,EON_Avacon,,10.0169175411587,51.8681629612351,DE
240,360660868,An der Stadtmauer,,AON_Avacon,,10.0265951815461,51.868851764386704,DE
241,360866453,412,,,,9.959933989088949,49.8173101805163,DE
242,361066856,Spritzenhausweg,GROH 305,EON_WestphalenWeser,,9.419723648820009,52.01410228417149,DE
243,361195673,Maidbronn 2 Nr. 943,,,,9.97636345698327,49.8493077947375,DE
244,361400570,Von-Bergmann-Straße 13,,,,7.03299048909508,51.47456915766979,DE
245,364657046,BLOM 305 Phoenix,,,,9.10385039293798,51.937631189220895,DE
246,365582007,Trafohaus,,,,6.359909167342139,51.1292278738935,DE
247,365675027,Sattledt - Nico,,,,14.0464803500025,48.0856278575235,AT
248,365705380,Kremsmünster Stiftstöckl,,,,14.127428438569801,48.0537994629212,AT
249,365887814,Station Rathaus,,,,10.2948434441567,52.842142782068,DE
250,366267892,Am Bellevue,Bellevue,Avacon,,9.647412796689618,52.17100396794971,DE
251,366285906,Lucken,,,,13.8986544851631,48.1272343503609,AT
252,366612788,Inkerman Barracks,174329,,,-0.604384277367404,51.316680955699994,GB
253,368387552,BLOM 311 Bahnhofstraße,,,,9.09389454430714,51.939337668042704,DE
254,368589936,Versorgungsamt,565,,,9.95566447620659,52.1501226853679,DE
255,369001066,Tiergartenstraße,83,Stadtwerke Pforzheim,,8.724060297791821,48.88196934467871,DE
256,369753996,Skjutbanan,,Gavle Energi,,17.1080789754661,60.655428765350706,SE
257,369978000,Lobnica I,TP-79,,,15.525068141116801,46.52273368259971,SI
258,370229227,SCHI 413 Siekfeld,,,,9.14253104058842,51.9217964925243,DE
259,370271896,Hohmeier,,,,9.17864304551543,52.3231104608992,DE
260,370276191,Maibaum,,,,8.6544966486517,52.1966469890024,DE
261,370276980,UW Kichlengern,,EON_WestfalenWeser,,8.6555352807832,52.196247178165294,DE
262,370326414,Hüttenstraße 50,,,,9.186437996730321,52.3305805790654,DE
263,370830298,"Hamberg, Wolfgangstraße",,EnBW Regional AG,,8.77733820948308,48.8204569885975,DE
264,371839111,Marienstraße,,AON Avacon,,10.031891558629699,51.867532889588006,DE
265,372455884,Umspannstation Alberweiler Gartenstraße,,Energie-Versorgung Schwaben AG,,9.766501286095481,48.1573695723717,DE
266,372708196,Bhf. Finkenkrug,,eon,,13.0507776279532,52.5686342624176,DE
267,372719533,Kirche,,eon,,13.042520852850801,52.563961352271605,DE
268,372729296,Umspannstation Aßmannshardt Kirche,,Energie-Versorgung Schwaben AG,,9.74133561223157,48.1540031503211,DE
269,372729321,Umspannstation Aßmannshardt Im Täle,,EnBW Regional AG,,9.74474292210423,48.1542535945568,DE
270,372877024,Gutshof,Trafostation 16,E-Werke Haniel,,11.546597732709598,48.3132869507845,DE
271,379588244,Seegefelder Straße,,E.ON edis,,13.1000711520333,52.560297493654794,DE
272,379770052,Dannenwalde Übergabe,,E.ON edis,,13.180340653235,53.0819340726122,DE
273,381332244,Vrhov dol 1,t-047,,,15.568899459111801,46.5425660918397,SI
274,382467894,EB-Trafo,,Mitsubishi Paper Mill,,8.613398993897821,52.0037520411939,DE
275,382968115,Schelmenbrink,,,,8.65409249660538,52.19482085770701,DE
276,385554363,2189 Willi-Bleicher-Straße n.Hs. 2,,,,6.472142972141,50.831762964262296,DE
277,385554370,2190 Willi-Bleicher-Straße 11,,,,6.46926494963374,50.833962570798796,DE
278,385651430,Wagnerallee,,E.ON edis,,13.1184598455623,52.576956290462505,DE
279,386038056,Bundesbahn,,DB Energie GmbH,,8.37951353669293,52.601993591797,DE
280,386357463,GOLM403 Bruch,,,,9.546366790102251,51.8969803402294,DE
281,387227991,MASP401 Gutsweg,,,,9.079484489171529,51.9236893857045,DE
282,387403292,TINT401 Papenhof,,,,9.05578001494876,51.914307848618705,DE
283,387621275,Lüdersfelder Straße,,,,9.281289131286881,52.358785674950894,DE
284,387621276,Memeler Weg,,,,9.277182482965529,52.3615392501508,DE
285,387621279,Am Paschenfeld,,,,9.28718387618127,52.3548173677639,DE
286,388114390,Relais,,,,6.32338357805832,46.935680347139595,FR
287,388148745,HERR402 Untere Straße,,,,9.03570051239201,51.9189514902036,DE
288,388224157,Adlwanger Straße,,,,14.219561630402698,48.0245789445859,AT
289,389842793,Seilershof Fischerwall,,E.ON edis,,13.1799452148469,53.07247477501821,DE
290,389916247,Gutach Pfaffenbach 10,,E-Werk Mittelbaden,,8.20605172993836,48.2492768594022,DE
291,389944113,Gutach Aberle F 26,,E-Werk Mittelbaden,,8.21013053048591,48.253360352513596,DE
292,389948980,Gutach Reutter,,E-Werk Mittelbaden,,8.211089122725589,48.253313279474405,DE
293,390687691,ISTR401 Schlesische Straße,,,,9.05238716795217,51.951010794119796,DE
294,390965581,Nordstraße,,,,9.27170599366742,52.365050079826496,DE
295,390987606,Annaweg,,,,9.28709593111496,52.3604061428872,DE
296,390987672,Glück-Auf-Straße,,,,9.28322553971333,52.3562181940094,DE
297,391093750,Schulstraße Baumarkt,,E.ON,,8.691494482280389,53.019583879902704,DE
298,391949822,im Tiergarten,,,,6.74166288986787,50.9964027752709,DE
299,392016673,Herkulesstraße 12,,,,7.022369797322461,51.4549675916945,DE
300,392650698,Dorfham,,,,13.8927406959846,48.0357287773876,AT
301,392922159,Neu St. Jürgen Jan-Weber-Straße,411/124/112,EWE,,8.95731729362394,53.25879028116201,DE
302,393331145,Station Akazienstraße,,,,6.5217044636703205,50.822703480276395,DE
303,393637455,BLOM 313 Gartenstraße,,,,9.09404213750833,51.944091685472294,DE
304,393973192,Schalthaus Dessau-West,,,,12.2211299234779,51.8360199398263,DE
305,395173140,SCHI 405 Pommernstraße,,,,9.15394359728398,51.9242612767056,DE
306,395338066,Buchtstraße 54/Mühlenstelle,,Osterholzer Stadtwerke,,8.76488333756335,53.199942192509006,DE
307,401537849,Schillerslage,,eon / Stadtwerke Burgdorf,,9.97849497948943,52.4667431512619,DE
308,401896557,Weserstraße,,eon / Stadtwerke Burgdorf,,9.99126596855764,52.459193963732794,DE
309,401896588,Saalestraße,,Stadtwerke Burgdorf / EON,,9.984999051641038,52.45627995839911,DE
310,403327954,Umspannwerk Ruhrstraße,85,Stadtwerke Ludwigsfelde,,13.236164480272999,52.3160449562856,DE
311,404354406,Polizei (Straße der Jugend),04,Stadtwerke Ludwigsfelde,,13.257338041014199,52.3039209745659,DE
312,404354490,Eurostahl,,Stadtwerke Ludwigsfelde,,13.2761361866497,52.302198185746796,DE
313,404354693,Zum Röthepfuhl,,eon_edis,,13.283651582148199,52.2992066701074,DE
314,404355064,Am Nuthedamm,,eon_edis,,13.275497753977302,52.2962156665792,DE
315,404355078,Weinberg,,,,13.290214853276998,52.29159284920429,DE
316,404355108,Friedhof,,eon_edis,,13.3083239910896,52.290320088707,DE
317,406070698,Umspannstation Landhaus Steine,,,,9.13926817981344,48.663432642679794,DE
318,409709789,Micheldorf - Hessendorf,,,,14.125568117447902,47.8823982733961,AT
319,409719502,Micheldorf - Seebach,,,,14.1397453292619,47.910551069271605,AT
320,409738284,Micheldorf - Weinzierl,,,,14.138842432569803,47.894980491339204,AT
321,411079462,Groß Schulzendorf Chaussee,,eon_edis,,13.312510140313599,52.2665836939781,DE
322,411079472,Dorf Wietstock,,,,13.306388930136098,52.2703310745774,DE
323,411079687,Dorfstraße,,,,13.3136598940457,52.2303460754828,DE
324,414547418,SCHI 404 Schillerstraße,,,,9.160384517871119,51.905792048264296,DE
325,415083996,Highfield Road,,,,-1.48557021615475,52.93345218590589,GB
326,415722714,Johanniskirchstraße 63,,RWE,,7.000121761669839,51.4993075574431,DE
327,416798571,Apfelgarten Vohenlohe,301/003,Süwag,,9.31044476231674,49.0733156837673,DE
328,416978728,"Krone (Greffern-Bühl, Greffern-Lichtenau)",,,,8.04823884492774,48.7653964595111,DE
329,417237983,Rhedebrügge Niehaves,,Stadtwerke Borken/Westfalen GmbH,,6.762270871306269,51.8223856778506,DE
330,417441546,Trafo Bauhaus,,,,12.2269768779992,51.840171593746796,DE
331,417548507,Будка,,,,27.668946633253103,53.8643310822874,BY
332,419751702,Feuerwehr,,EON_edis,,13.3535969254525,52.273059871212205,DE
333,419820379,In der Grub 1,,E-Werk Mittelbaden,,8.20202386386742,48.2462838373262,DE
334,424227333,Trafostation 4 Gutshof Atzger,,Vorarlberger Energienetze GmbH,,9.639911055583472,47.2970260723853,AT
335,429810460,Trafostation Bärenbach,,Stadtwerke Heidelberg,,8.77438427933431,49.4145097930978,DE
336,434582602,Waldsiedlung,,eon_edis,,13.378098025669301,52.2352592688738,DE
337,435464703,Umspannstation Rudolf-Diesel-Straße,,,,8.7727398233752,48.9133891362113,DE
338,439393539,Mariabrunn Röckenweg,,EnBW Regional AG,,9.539240634616391,47.632878659119996,DE
339,440467241,Oberdürrbach 2,562,,,9.9316130726211,49.8322788549314,DE
340,442102643,DQT,,ERDF,,6.115487280338289,45.9010161330332,FR
341,442369985,Mackworth Road,14D1387,,,-1.49317211941508,52.928358550408,GB
342,443690210,Trafostation,,,,13.2647123111816,52.29575868076179,DE
343,443690231,Trafostation Ludwigsfelder Straße,,,,13.212242434088399,52.2833607433671,DE
344,444594844,TST Schleinbach Kirche,,,,16.4711075925151,48.41768676229079,AT
345,444612066,Am Wall,,Stadtwerke Burgdorf gGmbH,,10.0106215188269,52.4481478592219,DE
346,445313109,Leffers/Marktstraße,219 A,GEW_Wilhelmshaven_GmbH,,8.110961553684701,53.5198875437751,DE
347,445313110,Marktstraße 74,RA 0531,GEW_Wilhelmshaven_GmbH,,8.11097017751143,53.51995398423529,DE
348,445313111,Bahnhofstraße/Metzer Weg,66E,GEW_Wilhelmshaven_GmbH,,8.1087900561484,53.5194793919738,DE
349,445822039,Gropiusallee,,,,12.2246421565758,51.841521685482995,DE
350,448561861,Trafostation 8 Wanne,,Vorarlberger Energienetze GmbH,,9.66430399863998,47.2895221351195,AT
351,448598161,Nitzenweiler,,EnBW Regional AG,,9.62790794642012,47.61189876453071,DE
352,454385558,Umspannstation Wenger Egg,,EnBW,,10.1286553860892,47.6890114761106,DE
353,457597808,Ruta I,TP-80,,,15.4232978229159,46.5518604865907,SI
354,458382674,Trafostation,,Osterholzer Stadtwerke,,8.78958934349637,53.2237932677686,DE
355,459064901,Adlwang Zeilinger,,,,14.2215918229448,48.0017510370372,AT
356,466244027,Stadttor,,EnBW Regional AG,,9.588397794436329,47.6714784389577,DE
357,468101107,T14,,,,8.07258273996973,48.7785306627894,DE
358,469286114,Trbonje,,,,15.096467815513401,46.5865034439833,SI
359,469422923,Stadtwerke Fürstenfeldbruck,95,,,11.120483764149599,48.1981545442046,DE
360,470436661,Aussiedler,21082,Energie Waldeck-Frankenberg,,8.95273247207685,51.273897689470004,DE
361,471972893,Raimbaldi,,,,7.268091995700081,43.70681607460279,FR
362,471972934,Pertinax,,,,7.26829384714442,43.7056552341764,FR
363,472419160,Trafostation Wiesenweg,15/3,Stadtwerke Marburg GmbH,,8.75057811582139,50.797894078852394,DE
364,472817671,Kvammen,,,,8.55848282462291,63.4405707715412,
365,472817677,Nord-Kvammen,,,,8.58765381684412,63.4514794651986,
366,474836463,P4 EGLISE,,,,0.13391688996928802,43.087961747539794,FR
367,475354692,Lindenplatz,2767-1,Dessauer Versorgungs- und Verkehrsgesellschaft,,12.2128104459686,51.8396077901143,DE
368,475817095,Trafostation 2 Feld,,Vorarlberger Energienetze GmbH,,9.64953533604294,47.2973668776047,AT
369,475986642,Weiler Trafostation 5 Walgaustraße,,Vorarlberger Energienetze GmbH,,9.65240985512059,47.3031174668709,AT
370,476355073,Hörsching - Majorweg,,,,14.1838970763187,48.2074676874082,AT
371,477893823,Umspannwerk Farchau,,Schleswig-Holstein Netz AG,,10.764492286668,53.679689948906,DE
372,479159830,Wellington Avenue,,,,-0.7639969370497601,51.25045196037151,GB
373,481231921,Control Room,,,,2.6785162946327206,42.9128949885511,FR
374,484900412,Siedlung Zoberberg,,,,12.172289958784802,51.8022099896271,DE
375,484900461,EKZ Hirtenhausiedlung,,,,12.181219931361198,51.80156993973121,DE
376,487077844,UP Schopp,,,,7.6857705142476105,49.3468715568266,DE
377,488131099,Dossenheim Lorscher Weg,,,,8.66806219758872,49.4527296803425,DE
378,493680599,Koppelstation Liebigstraße,N7669,Vattenfall Europe Berlin,,13.4584253783752,52.5160579863768,DE
379,496169887,Trafo Kläranlage,,,,9.986639195686779,49.5192069524109,DE
380,496282916,TST Münichsthal Hauptstraße,,,,16.474281160750802,48.384164791825896,AT
381,496430649,P 18 Station Épuration,,,,-3.9889980347164102,48.0975179638505,FR
382,496503167,Springfield Gardens,,SSE Power Distribution,,-4.23222893531658,57.468068354695994,GB
383,496503169,Ness Walk Inverness,,SSE Power Distribution,,-4.22981767743095,57.4680808666372,GB
384,496505007,P 52 Rosbriand,,,,-3.99503183881679,48.0975625403507,FR
385,496505023,P 160 Route de Landudal,,,,-3.9954431773853796,48.095111855414,FR
386,496505071,P 140 IME,,,,-3.99784464363442,48.0967368789036,FR
387,496505102,P 56 Les Bruyères,,,,-3.99876658461051,48.0989225549922,FR
388,497743106,Fa. Hehner Langenalb,,,,8.495013256538732,48.8431439913295,DE
389,497743110,Langenalb Marxzeller Straße,,,,8.49575984637136,48.843397970927896,DE
390,497743211,Langenalb Hansgaß,,,,8.50193333849841,48.8422235409733,DE
391,497744005,Langenalb Schule,,,,8.495765685420709,48.84566676272329,DE
392,498124657,Trafostation,,E.ON edis AG,,14.6983279238901,52.241319988056404,DE
393,500022478,Real,,LSW,,10.535800259615199,52.461925678853,DE
394,500058499,Stieglitzweg,,LSW,,10.5330622844607,52.4613974444436,DE
395,501589910,Mietsbürgerweg,,LSW,,10.530552481388401,52.4654619658831,DE
396,502075588,Kläranlage,45,EON_Avacon,,11.3843850791004,52.5380973931507,DE
397,506716566,TST Manhartsbrunn Mittelstraße,,EVN,,16.4307104440197,48.385809474061794,AT
398,508606578,TST Manhartsbrunn Seebarnerstraße,,EVN,,16.4264958182012,48.3873969524658,AT
399,512669583,Hohe Leuchte,22/36,Stadtwerke Marburg GmbH,,8.74858295757536,50.8035171614223,DE
400,513687575,P 141 ZA Lumunoch,,,,-4.0287512708160795,48.1017298824325,FR
401,513687576,P 142 ZA Lumunoch,,,,-4.0286095166642495,48.1047759847298,FR
402,514646568,Trafostation Ettenhausen,,,,9.880122988008301,49.3552559383969,DE
403,514725293,Becks Mill S/S,,,,-2.1956369747854496,51.2522641806282,GB
404,514818223,Exmoor Road S/S,,,,-2.19874406769016,51.25164109213549,GB
405,519305387,Weberstraße,,Stadtwerke Weinheim,,8.66319144228669,49.539353189348205,DE
406,521409020,Gänsemarkt 43,,RWE,,7.008330566736129,51.4580881849075,DE
407,521519548,Doktor-Franck-Straße,,EON_Avacon,,9.221054755866929,52.6439334730326,DE
408,523338330,Steintor,,,,10.088041833442,52.624308381027795,DE
409,524592368,Dossenheimer Weg,,EnBW,,8.66512165233768,49.470859372387,DE
410,525495237,Pritzwalk Langhof,,,,12.176609058670799,53.189184075864496,DE
411,528747607,Untermünstertal Station Etzenbach,,,,7.75969772988034,47.8639382859009,DE
412,529040022,WiKA Hartmann,,,,12.163790458892601,53.219013561835496,DE
413,529040023,WiKA Hartmann,,,,12.1763744187186,53.2134453504652,DE
414,529638874,Moosbeuren Adler,,EnBW Regional AG,,9.72446614951109,48.17884666775121,DE
415,531950587,Carbonnières,,ERDF,,-4.48435854712123,48.3901403515837,FR
416,531951734,Kergorju,,ERDF,,-4.47989868123017,48.392981488118,FR
417,534317668,Neetzendorfer Mühle 2,,Elektrizitätswerke Dahlenburg AG,,10.761903881008301,53.169716670713996,DE
418,534947175,Cavendish Superstore,,,,-1.4856709172981,52.9021965502538,GB
419,536781217,Staulinie 2,OE15,EWE_Netz,,8.21358554090016,53.143457955087996,DE
420,540819286,Dietlingen Östliche Friedrichstraße,,Badenwerk AG,,8.60816693618852,48.892533494205296,DE
421,540990867,20kV Umspannstation Breitnau,,,,7.8476410893966,47.8496215393178,DE
422,544303933,Georg-Könitzer-Straße,272,HEW HofEnergie+Wasser GmbH,,11.946648430773802,50.323398591618,DE
423,546721227,Trafostation Friedrichstraße,2/23,Stadtwerke Marburg GmbH,,8.765450264339151,50.8021625646155,DE
424,550186385,Trafostation Friedr. Naumann Straße,,,,8.76253657871511,50.8018007455035,DE
425,550186419,Wilhelmstraße,,Stadtwerke Marburg GmbH,,8.76542654881565,50.80554796115,DE
426,550880086,Umspannstation Nr. 615 Klumpensee Netz,,Stadtwerke Pforzheim,,8.721035760061719,48.916101349742,DE
427,550880088,Klumpensee Schaltanlage Nr. 600,,Stadtwerke Pforzheim,,8.72097898653576,48.9161430867606,DE
428,558636226,ПС 35/10 кВ Людково,,"ПО ""Кировские электрические сети""",,34.7295313915827,54.6022214733211,RU
429,559973718,Mile End Place,,SSE Power Distribution,,-4.25798075990338,57.4670518780187,GB
430,560440187,Elbingerode/Feldmark,,Harzenergie,,10.2928684980046,51.657475048775396,DE
431,561120572,Voßbruchweg 84,,,,8.53384347368397,52.1810782508648,DE
432,564679610,Wurmlinger Straße,,Stadtwerke Tübingen,,8.98065031447671,48.5261912521383,DE
433,564680277,Weinsteige,,Stadtwerke Tübingen,,8.98312238830708,48.5274170395288,DE
434,568367291,Mönchhütteweg,,Stadtwerke Tübingen,,8.98814936063701,48.52739746666679,DE
435,568548620,Culpepper Road,312040,,,0.5931512938971311,51.3448428778507,GB
436,568548677,Fairfax Close,312029,,,0.5915821167588311,51.3476312597959,GB
437,569059897,Galop,195,EDF,,-0.46576991711439797,43.889274593714894,FR
438,570698621,La Hiroire,213,EDF,,-0.479189130491632,43.8908731937899,FR
439,571117587,Larrouquère 2,141,EDF,,-0.46325688010707294,43.9104510578504,FR
440,571123163,Maridor Nord,127,Privé Maridor,,-0.46419526025286495,43.90761419207539,FR
441,572376248,Sianes,049,EDF,,-0.47765274186120205,43.872332739839,FR
442,576366018,Petit Barrère,218,EDF,,-0.47709327110225297,43.8766241812055,FR
443,576584461,Arènes,009,EDF,,-0.5043398923218251,43.8861517843847,FR
444,578002090,Poste Abreuvoir,259,EDF,,-0.502160848937136,43.8903467409974,FR
445,581197219,Hörsching - Haidstraße,,,,14.1675319277987,48.210171145470106,AT
446,581810209,Stichweg,,,,8.512575320343268,52.7075617690318,DE
447,582998470,Trafostation,,,,14.4808921466734,52.334329958497804,DE
448,583086977,Mellnsdorf,,eon,,12.8669586951304,51.9486514625727,DE
449,583293213,Bishy Barnebee Way No 2,G1793 0880F,EDF Energy Networks Ltd.,,1.21914131148901,52.633298782894705,GB
450,589808870,Niedermeiner Straße,,,,8.95693856390015,52.07082208763471,DE
451,590163872,Easterbrook Student Accom. sub station,01350,Western Power Distribution,,-1.8914443328797799,52.4889155403,GB
452,597245019,Étang,103,EDF,,-0.465569682637568,43.8929364916989,FR
453,597706084,Chourié 2 Est,233,EDF,,-0.47551052940316296,43.8740234897534,FR
454,597750685,WOEB 403 Friedenstal,L401,,,9.09585808185517,51.8943804572503,DE
455,598066934,Couturelles Lamartine,34,ERDF,,-0.47844936785515996,43.8759146716177,FR
456,598160595,Umspannwerk Rubens,,Stromnetz Berlin,,13.345951813227,52.4646657623504,DE
457,598487570,217 Palmiers,217,EDF,,-0.5006970441816639,43.885992386263,FR
458,598627836,215 Verdi,215,EDF,,-0.497132169808164,43.885421734901,FR
459,598921989,Frankenbach,,,,8.18130233537711,48.660972261828,DE
460,599676247,TST Theiß Ost,,EVN,,15.694622366217,48.3977861666861,AT
461,599729981,U-Station,,Vattenfall Europe AG,,13.487444645144901,52.5075240695233,DE
462,599794240,Am Bach,,,,8.16369311002016,48.6587680402272,DE
463,600036670,20 kV Trafostation Rheinauer Ring,,star.Energiewerke GmbH & Co. KG,,8.1957518265537,48.8765280672725,DE
464,600041439,Starhorstweg,,,,13.354646157704401,52.276435151772496,DE
465,601102393,Oberlaussa,,,,14.522096072125402,47.68631907924729,AT
466,601402746,Majot,145,EDF,,-0.475245436562819,43.894192160447396,FR
467,601450297,Promenade Majot,011,ERDF,,-0.471409360805043,43.895957962540294,FR
468,601459655,Maumus,144,EDF,,-0.47113169155072204,43.89387288893229,FR
469,601602166,Gartenstraße,,,,9.66698097818665,47.566142582725604,DE
470,601605900,BATTAN-EST,202,ERDF,,-0.45123149272467894,43.888589188802605,FR
471,603649060,Clos Marcadé,271,ERDF,,-0.46228139954004793,43.8734225469466,FR
472,603655244,TST Langenlois Siedlung Wienerstraße,,EVN,,15.6818310752234,48.4714103446313,AT
473,606352218,Acacias,007,ERDF,,-0.512303547147073,43.891720674608,FR
474,608636906,Eppingen Sportzentrum,,enbw,,8.92814279797312,49.131412891523,DE
475,609404546,Grosso 5,,,,7.251760174677139,43.695141058754,FR
476,614627678,Liw1 Lichtwertstraß,Liw1,Liw1 Lichtwertstraße,,11.0550336803585,51.8964320490679,DE
477,615517465,Kumen 1,TP-138,,,15.375607432291801,46.5245776933542,SI
478,617033796,77,,,,4.46882146563016,51.1377444808586,BE
479,617040798,24,,,,4.4761707626325995,51.133567771948,BE
480,617184527,Edf,,,,-0.522336022071648,43.900611989992505,FR
481,618280559,Umspannstation Großengstingen Schaufelbuch,Mast 31,EnBW,,9.2952258640993,48.375047558732604,DE
482,618397552,Herbert House Substation,55120,Western Power Distribution,,-1.9020568499833101,52.482456282948895,GB
483,618693787,Don Bosco,,,,7.28226354812776,43.709744246001996,FR
484,620478198,Heerenborg Esklumer Straße,,EWE,,7.46087925916191,53.210336463675006,DE
485,622325712,Feldstraße,,KEVAG,,7.59317235442362,50.368312253914205,DE
486,627843723,Camp del Mas,,EDF,,2.37823348016965,42.554334173307794,FR
487,629379453,Leimitzer Straße (bei UWO),257,HEW HofEnergie+Wasser GmbH,,11.939281975949399,50.3198601653244,DE
488,630953025,Spatzenturm,,,,8.59181696919685,49.1233631412201,DE
489,633469668,4,,,,4.48949673088334,51.129122790381004,BE
490,634424623,Neubauer Straße,,Thüringer_Energienetze,,10.370613373931802,50.9438578593073,DE
491,638245769,Laudot,038,EDF,,-0.46002599935620897,43.888503472171,FR
492,638922309,Couillot,031,EDF,,-0.4536259521145,43.88585687810121,FR
493,638931524,Betbeder,029,EDF,,-0.456010530036195,43.886910635312205,FR
494,638952597,Ramadier,212,EDF,,-0.45713028003785,43.88509607141721,FR
495,639104442,Loustalot,112,EDF,,-0.46141183034502,43.886543868282395,FR
496,641045301,Oberbellerweg,BELE104,,,9.0537417375691,51.89807668075371,DE
497,641045335,Schule,BELE101,,,9.056477017777711,51.898535763322805,DE
498,641322636,BRAS 301 Feldstraße,,,,9.16486567383442,51.8900801756473,DE
499,641498624,Station Am Lerchenberg Oberheinriet,,Süwag Energie AG,,9.33038394802611,49.097742946641105,DE
500,644942015,Mosbach Nord,,Thüringer_Energienetze,,10.377005695662099,50.9473822819306,DE
501,648225087,P179 Kerhun,,,,-3.9147167930302103,47.9173249690946,FR
502,648225094,BMA Z I,,,,-3.9099697357428096,47.9047915394841,FR
503,648225099,P 80 ZI Kersalé,,,,-3.9085476128165197,47.90618645384029,FR
504,648979208,Volksfestplatz 2,,,,9.13773224034065,49.972300576475604,DE
505,650033419,Central Electrica,,,,-1.7904830374237002,43.333906735161705,ES
506,653288403,Rummelweg 18,,EWE,,8.195943077877692,53.1405227855729,DE
507,653288416,Tannenstraße 13-15,,EWE,,8.1936685435783,53.13955746368179,DE
508,653288430,Zeughausstraße 74,,EWE,,8.198099663380281,53.142341987094895,DE
509,655308129,Achleiten - Säge,,,,14.178625133410803,48.0725142383827,AT
510,659270348,Fr 28,,MVV,,8.569360793892901,49.4471459431637,DE
511,659593100,Amtsweg,,,,12.1874399562199,51.837809987536,DE
512,664127598,Bahnhof Hünefeldstraße,,,,12.19435006688,51.827334459022296,DE
513,664127626,Hünefeldstraße,,,,12.197076543598799,51.8285111664394,DE
514,664127627,Gewerbegebiet Flugplatz,,,,12.198973515984301,51.82900837784779,DE
515,664127638,Lager Bundeswehr,,,,12.1981351183296,51.83334014720079,DE
516,664127646,Kreuzung Flugplatz,,,,12.2010757534122,51.830016774126705,DE
517,664127654,Am Pumpwerk,,,,12.205307716715698,51.8302683700313,DE
518,664127659,Elzholz,,,,12.191828585709,51.8353724877622,DE
519,664141803,Wildenlohslinie 30,,EWE Netz,,8.10365402834297,53.1323679515295,DE
520,665260271,Alemannenweg,1486,Allgäuer Überlandwerk,,10.308289068003301,47.7159035647975,DE
521,665288846,Lenzbergstraße,DOET402,,,9.00980262174002,52.034932972070706,DE
522,665440645,Thimonnier,P2507,EDF,,4.39790118074796,45.4165882626835,FR
523,665489447,Jeu de l'Arc,,EDF,,4.39175598555236,45.438350258676394,FR
524,665489451,Frères Chappes,,EDF,,4.39183476780278,45.439884641742296,FR
525,666884352,ehem. Trafostation,,,,9.077009720395301,52.0950021883733,DE
526,666926197,Kanalweg,307,Allgäuer Überlandwerk,,10.307515259217599,47.7281199365099,DE
527,667411432,Station Ranis Preißnitzberg,,Thüringer_Energienetze,,11.5709784586782,50.6649653781544,DE
528,668026634,Wilbaserstraße 5,SIEB898,,,9.07642967821635,51.9354677727848,DE
529,668062374,Mosigkauer Straße,,,,12.1798524260042,51.8354892785004,DE
530,668062406,Tower,,,,12.1859196474331,51.8354274416169,DE
531,668071450,Keselstraße,453,Allgäuer Überlandwerk,,10.3216339907066,47.717907149445494,DE
532,668090469,Köthener Straße,,,,12.1911499085118,51.82203997796471,DE
533,668114943,Station Ranis Torteich,,Thüringer_Energienetze,,11.5636981522896,50.66096186521279,DE
534,668114946,Station Brandenstein Ort,,Thüringer_Energienetze,,11.556846162628501,50.67080046144421,DE
535,669436361,Umspannstation IIlveshein Neckatplatten,,E.on,,8.57922519402782,49.4684621762512,DE
536,669762964,TST Seyringer Weg,,,,16.468199745940403,48.3601652878465,AT
537,669769024,TST Obersdorf Kellergasse,,,,16.5239242193079,48.36783488231811,AT
538,670567057,Station Wöhlsdorf Ort,,Thüringer_Energienetze,,11.543520463872301,50.651426438110704,DE
539,671575480,Dietlingen Beethovenstraße,,Badenwerk AG,,8.604224589732631,48.890749381248504,DE
540,671701406,"Lauben, Hirschdorfer Straße",,EW Gräbelesmühle,,10.297939218288901,47.776504555461294,DE
541,672165574,Ringstraße,1109-1,Dessauer Versorgungs- und Verkehrsgesellschaft mbH,,12.249279980378699,51.844139943269795,DE
542,672165594,Lessingstraße,,,,12.2515599944014,51.84336995507999,DE
543,673691435,Woodside Rd,S/S 57517,,,-1.9246784949625901,52.437374446826,GB
544,675244885,CFVE Bergson,,EDF,,4.3833660801248,45.4507597714923,FR
545,676231144,102 Langleys Road,3323,,,-1.94189479721427,52.435107768179705,GB
546,676665513,Stockwell Road / Costessey,TG 1519 1227,EDF Energy Networks Ltd.,,1.18087433802691,52.6654856945934,GB
547,676665706,School Queens Hills / Costessey,TG 1528 1237,EDF Energy Networks Ltd.,,1.18235943285462,52.666326965113896,GB
548,676831388,Dietlingen Leibnizstraße,,,,8.59591768863732,48.8955724880862,DE
549,676831401,Dietlingen Untere Ebertstraße,,Badenwerk AG,,8.59978772071284,48.895920989627705,DE
550,679119459,Grubenbühl,,EnBW,,9.27661465787444,48.309776743467296,DE
551,679960154,Eichengrund-Siedlung Ⅰ,,enviaM RWE,,14.3395315467653,51.713183990621204,DE
552,679960155,Gallinchen GG 4.2.,,enviaM RWE,,14.3684766126926,51.70236995461289,DE
553,679960156,Kutzeburger Mühle,,enviaM RWE,,14.368076143738898,51.7052822711045,DE
554,679960158,Rasenweg,,Elektroenergieversorgung Cottbus GmbH,,14.349722125179902,51.7204413480835,DE
555,679960159,Kiekebusch Gartenstraße,,enviaM RWE,,14.364720217500501,51.7243716637904,DE
556,680087811,Knollengraben 1,,TWS Netz GmbH,,9.62141923545987,47.76702135535211,DE
557,680087950,Berlinerstraße 1,,TWS Netz GmbH,,9.62320697270679,47.7687487375459,DE
558,683208906,20 kV Trafostation Favoritestraße 35,,star.Energiewerke GmbH & Co. KG,,8.23492663744193,48.8237365793703,DE
559,683423083,Lenzfried Nordost,,Allgäuer Überlandwerk,,10.341771075273,47.730220694518096,DE
560,683550936,Stuttgart Steckfeld,1228,Netze BW,,9.201747445128401,48.712072145712206,DE
561,684061949,Gerhardingerweg,609,Allgäuer Überlandwerk,,10.3386601196126,47.729730482932304,DE
562,684303229,Klosterwiese,,Allgäuer Überlandwerk,,10.3355898576345,47.729316944512206,DE
563,684325867,Sgw. Spathelf,,E-Werk Mittelbaden,,8.21359829697719,48.238968279589,DE
564,685924123,Umspannturm Mösmühle,,ewa riss,,9.70484954882024,48.0798684532137,DE
565,685924221,Umspannstation Pumpwerk Eichen,,ewa riss,,9.70410125218857,48.07535697960589,DE
566,686399835,Stadion Robotron,,,,13.107003630743899,52.3834827734402,DE
567,686671231,Umspannstation Zur Breite,,,,9.78529494015454,48.066044992768795,DE
568,686778459,Trafostation,,E.ON edis AG,,14.544130308740401,52.2226039773927,DE
569,686778477,Trafostation,,E.ON edis AG,,14.506431250200901,52.23789885003671,DE
570,686832000,Trafostation,,E.ON edis AG,,14.547850591658099,52.240308669641706,DE
571,687649899,Trafostation,,E.ON edis AG,,14.5324548151612,52.189340086171,DE
572,687649907,Trafostation,,E.ON edis AG,,14.535857992783502,52.1869179720005,DE
573,687649932,Trafostation,,E.ON edis AG,,14.541578195018198,52.1859559738593,DE
574,687649963,Trafostation,,E.ON edis AG,,14.5380249089119,52.192506369125006,DE
575,687650040,Trafostation,,E.ON edis AG,,14.553270127767199,52.217552947751294,DE
576,689036392,TST Eibesbrunn S1 Ost T9,,,,16.4931153288292,48.3460911356916,AT
577,689066621,TST Eco Plus Süd,,,,16.503227753814002,48.3685981736771,AT
578,689186718,Staudach,217,Allgäuer Überlandwerk,,10.2870712203185,47.7236262885622,DE
579,690375146,TST Manhartsbrunn Sender,,EVN,,16.428597696303,48.3900926887621,AT
580,690577175,Trafostation,,E.ON edis AG,,14.605798395353801,52.175268171971105,DE
581,691625758,Trafostation,,E.ON edis AG,,14.5471939231854,52.3380589862932,DE
582,693096462,Hehle,,Allgäuer Überlandwerk,,10.334835093132801,47.708337042840704,DE
583,693279680,Umspannstelle Dekan-Rogg-Straße,,Technische Werke Friedrichshafen GmbH,,9.4708987840942,47.6848289883149,DE
584,693279712,Stat.Berger Halde,,Technische Werke Friedrichshafen GmbH,,9.47301979631153,47.6877987869205,DE
585,697982119,TST Kronberg Gemeinde,,,,16.5153284200173,48.4193776387415,AT
586,698654543,Steufzgen,,Allgäuer Überlandwerk,,10.296272124784599,47.7106492512829,DE
587,699824417,Feichtmayrstraße,,Allgäuer Überlandwerk,,10.291271383261,47.713554840741395,DE
588,700056897,Friedhof,,EON_Avacon,,9.21193604724936,52.6466537664954,DE
589,701060131,Johann-Schütz-Straße,322,Allgäuer Überlandwerk,,10.295133330498901,47.7155178397695,DE
590,702595120,Cambodunumweg,,Allgäuer Überlandwerk,,10.325077143359099,47.728196072113704,DE
591,702595321,Keckwiese,575,Allgäuer Überlandwerk,,10.3253272343342,47.731509554956,DE
592,703106137,Meierhof,1078,Stadtwerke Bühl,,8.13905537604873,48.69534357572479,DE
593,703133390,Stephanstraße,1103,Allgäuer Überlandwerk,,10.3282135213421,47.7354838490166,DE
594,703224531,Bühl West,1745,Allgäuer Überlandwerk,,10.330473413102302,47.73586797623339,DE
595,703224789,Bühl Ost,,Allgäuer Überlandwerk,,10.3355970441568,47.7362099908624,DE
596,703224818,Dürkheimer Weg,,Allgäuer Überlandwerk,,10.3332023152724,47.7360756864985,DE
597,703474534,Duh na Ostrem Vrhu,,,,15.464069119727002,46.6136485471244,SI
598,703597414,Peter-Dörfler-Straße,,Allgäuer Überlandwerk,,10.3226547463639,47.7372880381717,DE
599,703714642,Seggers,76,Allgäuer Überlandwerk,,10.3193201101977,47.7438845804247,DE
600,703714904,Holzbachweg,1034,Allgäuer Überlandwerk,,10.3207710690446,47.74743058247579,DE
601,703900458,Elmstein Pfarrgarten,,Pfalzwerke,,7.9315823644905805,49.3518623431183,DE
602,703942101,Tarentaize 30,,EDF,,4.3822476775960695,45.436767486502895,FR
603,704616465,Wintersdorf Benzindepot,,star Energiewerke GmbH & Co. KG,,8.14665063177596,48.841647164544796,DE
604,704798729,Béranger,,ERDF,,4.38784804457185,45.424739741212704,FR
605,704798739,Jean Giono 5,,EDF,,4.38516378867138,45.4239401626184,FR
606,704808826,Zellerstraße,,E-Werk Mittelbaden,,7.950254386660169,48.4734433667721,DE
607,705180926,Ravensburg Karosseriebau,,TWS Netz GmbH,,9.62111856933427,47.773238068922005,DE
608,706970987,Jugenddorf,,,,7.950366945565269,48.4585372728984,DE
609,707515236,Wasserwerk,,Allgäuer Überlandwerk,,10.3218238945576,47.7266036667381,DE
610,707735689,G. Eiffel,,,,7.333810945255691,43.7040526452102,FR
611,708693121,Görresweg,588,Allgäuer Überlandwerk,,10.3278721615341,47.7250499474811,DE
612,710404699,Heerener Straße 11,,,,11.8718726665237,52.590060346160705,DE
613,712052793,Magnusstraße,1039,Allgäuer Überlandwerk,,10.325538068931401,47.7081289801542,DE
614,712175487,Linggen,96,Allgäuer Überlandwerk,,10.3431253753954,47.71286217056151,DE
615,712438463,Birken,1552,Allgäuer Überlandwerk,,10.3472180099983,47.7377131731981,DE
616,712572731,Vorderwaldmanns,,Allgäuer Überlandwerk,,10.3626798126686,47.7507376471247,DE
617,712692321,Bühl,25,Allgäuer Überlandwerk,,10.339199737603801,47.7358369827458,DE
618,715738359,Oberbühl,,Allgäuer Überlandwerk,,10.3573556776426,47.7194608400074,DE
619,715746492,Ludwigshöhe Nord,619,Allgäuer Überlandwerk,,10.337242398431199,47.7192241753372,DE
620,715801897,Rochetaillé II,,ERDF,,4.39723714608994,45.421236567452794,FR
621,717457136,Bei der Sackpfeife,Sa 11,MVV Energie,,8.44339183823139,49.5894201754828,DE
622,717668134,Tegelkamp 1,M01,EWE,,8.19179861048288,53.1196326857619,DE
623,717714022,Orlica,,,,15.2415931649457,46.5597577846155,SI
624,718925637,Rothkreuz,,Allgäuer Überlandwerk,,10.2753310480389,47.7113842620718,DE
625,718925772,Leutkircher Straße,,Allgäuer Überlandwerk,,10.287316190896501,47.7170391463944,DE
626,720866352,Kotterner Straße ZAK,882,Allgäuer Überlandwerk,,10.3195773876951,47.716129244647796,DE
627,720900549,Boleite,452,Allgäuer Überlandwerk,,10.3206601271071,47.716638984986496,DE
628,721026530,Berufsschulzentrum Süd,426,Allgäuer Überlandwerk,,10.3165095511683,47.71714968734421,DE
629,721513155,Post,,,,12.578631109626,54.445045575753,DE
630,721513156,Bebelstraße,,,,12.573069639702101,54.443713965342,DE
631,724276205,Kremsmünster - Sportanlagen,,,,14.128974529005301,48.05007453522101,AT
632,726563452,Wiesstraße Nord,60,Allgäuer Überlandwerk,,10.3150396378689,47.7188780603866,DE
633,726563667,Wiesberg,,Allgäuer Überlandwerk,,10.3155242789647,47.7181579622839,DE
634,727273329,Dunsum Schöpfwerk,,Schleswig-Holstein Netz AG,,8.40589040905442,54.729718079136,
635,727295421,Nieblum Grevelingstieg 026,,Schleswig-Holstein Netz AG,,8.50931659181859,54.6866433757219,
636,727467592,KW Keselstraße,454,Allgäuer Überlandwerk,,10.3221510609841,47.718379885311606,DE
637,731426067,Sierning - Hofer,,,,14.313645154549,48.035736586146896,AT
638,732546785,St.-Denis-Straße,,E-Werk Mittelbaden AG,,7.91263527818099,48.4857816751192,DE
639,732546836,Römerstraße,,E-Werk Mittelbaden AG,,7.91868965370137,48.48845117911839,DE
640,732546959,In der Spöck,,E-Werk Mittelbaden AG,,7.92234058667909,48.48097405822761,DE
641,736542786,Haubensteigweg,315,Allgäuer Überlandwerk,,10.2982736610692,47.7258898390464,DE
642,736542949,Finkenweg,294,Allgäuer Überlandwerk,,10.2924940801942,47.7323950804465,DE
643,736759675,Birken-Dell,,,,7.69080341545841,49.2054887759394,DE
644,738125783,Grauer Steinhau,,,,12.1959699090003,51.7991799768836,DE
645,738126190,Weiße Seehau,,Dessauer Versorgungs- und Verkehrsgesellschaft mbH,,12.1983599666452,51.7983899424771,DE
646,739390298,Littré 34,,EDF,,4.38737768668909,45.428706951300605,FR
647,743379432,St.Lorenzen Radlitz,,E-Steiermark,,15.2020123155491,46.6651414416599,AT
648,743379820,Sankt Lorenzen (Ort),,,,15.1629888707863,46.6617601349419,AT
649,745376071,Henstedt Maschloh,032,Schleswig-Holstein Netz AG,,10.021727211021402,53.7800467711616,DE
650,745606068,20kV Trafostation Ottersdorfer Straße 57,,Star Energiewerke,,8.18745489675805,48.8536476567429,DE
651,746684714,Grötzelstraße,,Technische Werke Friedrichshafen GmbH,,9.46584234702295,47.6830506808233,DE
652,746684801,Berg Harrößenstraße,,Technische Werke Friedrichshafen GmbH,,9.46710645629076,47.685158456891,DE
653,746844875,Station 1,,,,10.6999690845871,49.2028237689159,DE
654,747124142,Malterhausen Dorf,,Eon_edis,,12.9372010214677,52.00836054858979,DE
655,748459397,Peters Bridge,,Scottish and Southern Energy,,-4.429220673634211,57.5985862685962,GB
656,748459415,Tulloch Avenue,,Scottish and Southern Energy,,-4.42962087309328,57.60290246482679,GB
657,756697270,Lohmühltobel,589,Allgäuer Überlandwerk,,10.3304920980602,47.7233199662696,DE
658,759531199,TrSt Dorfstraße,,Eon_edis,,12.923214432157,52.011247543134296,DE
659,759891042,Transformator,Spielplatz,RWE,,6.94200974594015,49.9749809548435,DE
660,762063992,Unterwang,69,Allgäuer Überlandwerk,,10.3080647586769,47.7475721662586,DE
661,762298794,Baywa,,Allgäuer Überlandwerk,,10.319863860439199,47.7493654872373,DE
662,762298798,Gimmler,522,Allgäuer Überlandwerk,,10.316773655861802,47.75524628873939,DE
663,762299055,Hafenthal,1493,Allgäuer Überlandwerk,,10.3122307856385,47.7648123672183,DE
664,762359691,Reitplatz,539,Allgäuer Überlandwerk,,10.3150389192167,47.73780276707729,DE
665,765259985,TS Bol-4,,HEP,,16.4498854329169,43.51351367842939,HR
666,765259990,Bol-6,,,,16.4513727735328,43.5142770649998,HR
667,765259998,Bol-7,,HEP,,16.4511795459152,43.51539118294129,HR
668,765260014,TS Bol-5,,HEP,,16.451943652895903,43.5136907474495,HR
669,765260043,Bol-3,,HEP,,16.4502011907393,43.5146931515655,HR
670,765318236,Trafostation Pumpe,,EKS NOK,,8.5025115840468,47.6984506691029,CH
671,765974483,Burg,,Allgäuer Überlandwerk,,10.2790543852285,47.7768594634334,DE
672,765998573,Heiligkreuz Nord,,Allgäuer Überlandwerk,,10.2817547209725,47.751824936438105,DE
673,766152771,Gasdruckregelanlage Nr. 018096 Esens,018096,EWE Norden,,7.611701634294571,53.6587149555698,DE
674,766164117,Nordergründe,,,,8.18769232148764,53.812257192691,
675,766503724,Niedergörsdorf 1,,Eon_edis,,12.9860160129959,51.979692939917896,DE
676,766659533,Epple,540,Allgäuer Überlandwerk,,10.3274939707995,47.736784964288,DE
677,766659537,Bleicherstraße,291,Allgäuer Überlandwerk,,10.3246236738037,47.7425118774095,DE
678,768076568,Birds Bakery Substation,,,,-1.45353665244916,52.8993546505258,GB
679,768086144,Höflings,,Allgäuer Überlandwerk,,10.2693507835294,47.7188151466311,DE
680,770200446,Rauhen,,Allgäuer Überlandwerk,,10.2762387956335,47.72448668863339,DE
681,771237161,Stadtbad,325,Allgäuer Überlandwerk,,10.2964662507175,47.720777464022795,DE
682,771237192,Schraudystraße,,Allgäuer Überlandwerk,,10.2959483719562,47.718103750551,DE
683,773669355,Bachen,,Allgäuer Überlandwerk,,10.3419454382697,47.7434767722849,DE
684,773808624,Pumpwerk,,Allgäuer Überlandwerk,,10.317483055441699,47.7720284865291,DE
685,773838983,Zeppelinstraße West,79,Allgäuer Überlandwerk,,10.323783210023802,47.764275684386504,DE
686,774845320,TrSt Mühlenweg,,eon EDIS,,12.9914863937501,51.98511094565679,DE
687,778189712,Steig,1496,Allgäuer Überlandwerk,,10.320437524579699,47.76452784388639,DE
688,778231709,Keck,,Allgäuer Überlandwerk,,10.3240831574972,47.7334906678025,DE
689,784029314,Lämmlings Nord,1107,Allgäuer Überlandwerk,,10.2647762926081,47.7329103410781,DE
690,785595051,Unterschmieden,,Allgäuer Überlandwerk,,10.282092128193302,47.74084475933311,DE
691,785625296,Bardenitz Dorf,,eon edis,,12.9425510279738,52.0776352813118,DE
692,787364138,Elmatried,,Allgäuer Überlandwerk,,10.268570237379,47.7430316893357,DE
693,787364509,Schwarzen,,Allgäuer Überlandwerk,,10.2746711456311,47.7459656750995,DE
694,789439458,Umspannwerk Gera Nord,,Thüringer_Energienetze,,12.0616871352158,50.905095478917,DE
695,791401602,Bechhofen 03,,N-Ergie,,10.5543230716161,49.16157885822639,DE
696,794505424,Håvestensvägen,8600,,,11.989089246540502,58.561722155279796,SE
697,797201529,Chaponstraße,1507-1,DVV,,12.235540427771198,51.82850289434071,DE
698,800204931,Eckmannsdorf,,eon edis,,12.8954070825371,51.995326667231204,DE
699,800204941,Schönefeld,,eon edis,,12.830440831357999,51.9785675506691,DE
700,800445323,Hochbehälter,,,,8.27782209057392,47.6377432500813,DE
701,800611672,20 kV-Trafostation Aalstraße,,star Energiewerke GmbH & Co. KG,,8.143644689172241,48.8472527926995,DE
702,802248553,Wyk Leuchtturm 072,,Schleswig-Holstein Netz AG,,8.56498474081784,54.68108047868301,
703,802339265,Wyk Am Grünstreifen 025,,Schleswig-Holstein Netz AG,,8.556187179914339,54.684162958522606,
704,802566212,Vršava T1 sportovní areál,,eon,,17.6925813796393,49.240295457747095,CZ
705,802971493,Wyk Koogskuhl 110,,Schleswig-Holstein Netz AG,,8.56941595045134,54.6932391686916,
706,803018273,Wyk Wellenbad 027,,Schleswig-Holstein Netz AG,,8.56763045899263,54.683475450153104,
707,803475723,Zlín T56 domov důchodců,,,,17.6886028310775,49.234208568688004,CZ
708,803890908,Trafostation,,E.ON edis AG,,14.697637658425801,52.241365974029996,DE
709,804416595,Eschenstraße,,,,8.23223995609018,47.61875544470529,CH
710,805701658,Erprathsweg,,,,6.4981089550915305,51.4108538559575,DE
711,805701669,Siebenhäuser,,,,6.51227538712209,51.4006063631917,DE
712,806438026,Wyk Schulzentrum 009,,Schleswig-Holstein Netz AG,,8.55777638948348,54.692772263076,
713,807083034,Wyk Gmelinstraße 044,,Schleswig-Holstein Netz AG,,8.55792703695662,54.68770189224689,
714,807295037,Wyk Feldstraße 017,,Schleswig-Holstein Netz AG,,8.56500055116684,54.6878352888142,
715,808001885,Rayen,,,,6.5259554712578405,51.44980876932,DE
716,808860659,Wyk Heymannsplatz 012,,Schleswig-Holstein Netz AG,,8.567510444070669,54.692830256648904,
717,808974731,Wyk Kortdeelsweg 021,,Schleswig-Holstein Netz AG,,8.54873619362174,54.689401172840206,
718,810762066,Wyk Fehrstieg 013,,Schleswig-Holstein Netz AG,,8.54656927749339,54.6922022913942,
719,810762070,Wyk Halligblick 052,,Schleswig-Holstein Netz AG,,8.53744122639686,54.6823895589203,
720,811396936,Lind 80,,,,6.49255997174999,51.418645165300504,DE
721,812071743,S.P.S. Speefeld,,,,6.4496210401582506,51.376714184766705,DE
722,814026511,Schauteshütte,,,,6.43147201714707,51.382838359281905,DE
723,818122621,Sparkasse 041,,Schleswig-Holstein Netz AG,,8.48804268926007,54.6922894646632,
724,818243174,Goting Süd 022,,Schleswig-Holstein Netz AG,,8.47481391872307,54.688488193519795,
725,819865812,Nieblum Eckweg 053,,Schleswig-Holstein Netz AG,,8.48504294503182,54.6896590755228,
726,819865814,Nieblum Goting Ost 019,,Schleswig-Holstein Netz AG,,8.481768855315782,54.6906884891507,
727,819865824,Nieblum Ketwond 043,,Schleswig-Holstein Netz AG,,8.4916680202522,54.688431180309706,
728,819929273,Süderende Schule 058,,Schleswig-Holstein Netz AG,,8.43638704514041,54.7190991531609,
729,819931301,Süderende Dorf 049,,Schleswig-Holstein Netz AG,,8.439176044603009,54.725995276561605,
730,822864020,Kynance Cove,41 5614,,,-5.23112157493975,49.9758580510243,
731,825036028,Achterberg,,,,6.51973391926308,51.41108487018639,DE
732,825036047,Geulenhof,,Stadtwerke Kempen,,6.523741213914009,51.4093101825335,DE
733,825189269,Wyk Oevenum Mitte 009,,Schleswig-Holstein Netz AG,,8.53005734425599,54.7100946888355,
734,825257910,Wyk Midlum West 099,,Schleswig-Holstein Netz AG,,8.51844212763232,54.71486529166779,
735,825308707,Nieblum Borgsum 029,,Schleswig-Holstein Netz AG,,8.45877225353691,54.7027229442714,
736,825312670,Nieblum Borgsum Ost 027,,Schleswig-Holstein Netz AG,,8.46177244692281,54.698606094720105,
737,825312671,Nieblum Goting 025,,Schleswig-Holstein Netz AG,,8.46864967924345,54.693645844141294,
738,825411084,Langenschönbichl - Siedlung,,EVN,,15.985823213157598,48.3277326399418,AT
739,826085572,Feuerwehr,,Allgäuer Überlandwerk,,10.316624355861599,47.72891687740729,DE
740,826320114,Batzen,,Allgäuer Überlandwerk,,10.2629394175151,47.77176634123,DE
741,826320203,Kornangers,,Allgäuer Überlandwerk,,10.2554837599831,47.76639986049379,DE
742,826320355,Hiltensberg,,Allgäuer Überlandwerk,,10.2568512653401,47.7701067412477,DE
743,826320505,Hohenrad,,Allgäuer Überlandwerk,,10.238322973615901,47.768194887425096,DE
744,827253397,UP Trippstadt Friedhof,,Pfalzwerke,,7.77815801913746,49.3612976495498,DE
745,828826486,Frauendamm 087,,HanseWerk AG,,9.90857667547514,54.333274788459605,DE
746,829148560,Krummwisch 084,,HanseWerk AG,,9.89734881240199,54.335167948541695,DE
747,830585762,Schaltstation Danna,,Eon_edis,,12.861441871476,51.9906750531846,DE
748,830585766,Trafostation Wergzahna,,Eon_edis,,12.7865502245543,51.9722747764179,DE
749,831202336,TH. Am Hang,12389,Isar-Amperwerke,,11.6646153404653,48.225638677266595,DE
750,831210693,Building 251,,unknown,,10.213389514253,49.7527221748807,DE
751,833229347,Hanfsee,,,,8.05124954860246,48.7834536678604,DE
752,833346942,Trafostation Fachmarktzentrum,,,,13.2530672704905,52.3050869486543,DE
753,833406859,588 C1,,"Lechwerke AG, Augsburg",,10.889356314530001,48.3452698911341,DE
754,833742250,Durach/Alte Landstraße,1526,Allgäuer Überlandwerk,,10.3526386240857,47.690835657308,DE
755,833757559,Nägeleried/Autobahn,,Allgäuer Überlandwerk,,10.3679781660458,47.684958768219005,DE
756,836153541,Werneck 18,,,,10.1122077722262,49.9780481796975,DE
757,836153550,Werneck 10,,,,10.1086948204761,49.983779962747704,DE
758,838497125,Rudolf-Diesel-Straße,,Allgäuer Überlandwerk,,10.3176190603757,47.7583381705274,DE
759,840519290,La Poyat,,ERDF,,4.715547890663889,45.9005356501482,FR
760,841014551,Vluyner Busch,,,,6.50908654752653,51.4553506944816,DE
761,846059502,Spielfeld,,,,8.08550015442926,48.79427378554811,DE
762,846120685,Werderstraße,,DVV,,12.240119949258098,51.848339959791296,DE
763,847226569,Schellenbergstraße,,Allgäuer Überlandwerk,,10.310089471495802,47.7135575606324,DE
764,847797711,Ursulasried,1654,Allgäuer Überlandwerk,,10.316912265910199,47.753052684774396,DE
765,849085303,An der Heidmühle,,,,9.20446026745492,52.348881359447695,DE
766,849757429,Ellharten,,Allgäuer Überlandwerk,,10.3025419163101,47.7154070535983,DE
767,849757813,Vicariweg,,Allgäuer Überlandwerk,,10.3017474462728,47.7116392769619,DE
768,849968790,Dornierstraße,,Allgäuer Überlandwerk,,10.3027527509073,47.7178719751147,DE
769,849994943,Schwaighauser Weg,327,Allgäuer Überlandwerk,,10.308712443996699,47.722137565870895,DE
770,851422650,Riehkamp,,,,9.275137019063589,52.3594464762321,DE
771,851501291,Gewerbestraße,,,,9.290324296583028,52.354082371608804,DE
772,851736482,Trennstation Hütter,,,,6.41397885412483,51.3448604407833,DE
773,851736523,Kuhdyck 200,,,,6.386901565336309,51.417461365811995,DE
774,851736580,Lepers,,,,6.358929015535639,51.354685369377606,DE
775,852683428,Am Alten Busch,SN430001,,,9.34146619419171,52.323782172563895,DE
776,852683463,Am Westentor,SN440005,,,9.313473611960198,52.3427210774356,DE
777,853454158,Compact Station,,Stadtwerke Brühl,,6.88964039032725,50.8283791839013,DE
778,853716071,Dudley Bank B/T,,,,-3.1881734947842997,55.9773439564375,
779,854512085,Maler-Lochbihler-Straße,,Allgäuer Überlandwerk,,10.310091717284,47.717077645374005,DE
780,854691634,Lessingstraße,,Allgäuer Überlandwerk,,10.3058761931502,47.72101859370629,DE
781,856896188,Valby Overdrev,,,,12.241263774109399,56.058787667090996,DK
782,856923239,Eschenweg,251,Allgäuer Überlandwerk,,10.3033670188986,47.7222063375175,DE
783,857377563,TP Rogla 1,,Elektro Slovenska Bistrica,,15.3465708280371,46.4544174646744,SI
784,857739079,Station Steinfeld,,RWE,,8.19590004857558,52.578931155545206,DE
785,857739615,Station Steinfeld,,RWE,,8.22404938682417,52.5874473800698,DE
786,858175179,Waldstraße 7,,,,9.31660001864352,52.426906575352795,DE
787,858175256,Wietersheimstraße,,EON_Westfalen_Weser,,9.26385049600238,52.3955360602858,DE
788,858175309,Schöpfwerk,,,,9.31830852448239,52.440261665881394,DE
789,858175370,Hainholzstraße,,,,9.319258582726869,52.4292461417972,DE
790,858175414,Klosterstraße,,,,9.39215614938095,52.4577789422307,DE
791,858175423,Wischhöfers Weg,,,,9.381221855742641,52.4557098888556,DE
792,858488917,Bavaria,312,Allgäuer Überlandwerk,,10.304405471367,47.72501846412501,DE
793,860574856,Laussonne Haut,,Electricite de France,,4.05245646369107,44.96890676377829,FR
794,860575989,Prechaud,,Electricite de France,,4.05510379883337,44.974430693560706,FR
795,861050979,Hohes Feld 5,,,,9.17468291241692,52.299731245066496,DE
796,861050997,Schnatwinkel 1,,,,9.170998831605221,52.2956890721452,DE
797,861051015,HEWA Schnatwinkel 8,,,,9.172557857780811,52.2984632781322,DE
798,861051057,Kleefeld,,,,9.17057347931819,52.2972459825346,DE
799,861187743,Kornhaus,306,Allgäuer Überlandwerk,,10.3093983975477,47.728678442960394,DE
800,861486888,Weilerstraße Nord,,Allgäuer Überlandwerk,,10.2712102961675,47.465323376806296,DE
801,861499978,Fürstenstraße,,Allgäuer Überlandwerk,,10.3087531376791,47.7304298774485,DE
802,864680296,Weiherstraße,304,Allgäuer Überlandwerk,,10.307591526185199,47.731474752336595,DE
803,864862091,Schnetzerpark,,Allgäuer Überlandwerk,,10.3116430179481,47.7213154415483,DE
804,864862192,Schwabenweg,,Allgäuer Überlandwerk,,10.3137759777587,47.71790098487371,DE
805,864937378,Jägerstraße,1643,Allgäuer Überlandwerk,,10.312971716084899,47.7231563801211,DE
806,866710239,Prinz-Franz-Gelände,390,Allgäuer Überlandwerk,,10.3140775421996,47.7308669715934,DE
807,866813408,St. Annen 40,,,,9.19493587965504,52.31081178907821,DE
808,866814007,Gerhart-Hauptmann-Straße,,Allgäuer Überlandwerk,,10.3130873292619,47.73306078558699,DE
809,868008743,St. Annen 20,,,,9.199108643981301,52.3138709475725,DE
810,868015123,Am breiten Graben 27,,,,9.32358441997755,52.4263559550846,DE
811,868569064,Habichtweg,386,Allgäuer Überlandwerk,,10.2959979589599,47.7345622463066,DE
812,868666785,Bachstelzenweg,,Allgäuer Überlandwerk,,10.2930647798942,47.73886386586639,DE
813,875910070,Amselweg,375,Allgäuer Überlandwerk,,10.2878362256145,47.73715724063789,DE
814,875910244,Schwalbenweg,,Allgäuer Überlandwerk,,10.2866819803059,47.738745638154796,DE
815,876161245,Floßerhäusle,,Allgäuer Überlandwerk,,10.30737727799,47.7404610917081,DE
816,876235315,Bergholer Straße,,,,9.22052879226807,52.427649452642406,DE
817,876267376,Scharfrichter,,Allgäuer Überlandwerk,,10.309802819088599,47.73930644713921,DE
818,878590537,Yburgstraße,,,,8.13364509258706,48.7361984677824,DE
819,880227824,Au-Oberhausen Trafo 04,QMAOB-ST01,DB Energie GmbH,,10.870218875211698,48.3825459497436,DE
820,880476962,Lotissement,19524,,,1.8233472732725098,43.363989938287,FR
821,889278318,Plač,TP-36,,,15.609700849485,46.6713466838284,SI
822,890976681,Wasserstadt,,DVV,,12.258889977625198,51.836109974004,DE
823,891391797,Bosc,,ErDF,,1.82146665022521,43.3566806734774,FR
824,891391842,Carla,,ErDF,,1.81874223963153,43.3552758415382,FR
825,895598526,Schlößleweg,,Allgäuer Überlandwerk,,10.316903911577999,47.732249286380394,DE
826,897441238,Johannisbrücke,,Allgäuer Überlandwerk,,10.3087002269089,47.736963067619,DE
827,897441712,Breite,382,Allgäuer Überlandwerk,,10.3069528240182,47.739510760620796,DE
828,897602369,Langheck,,,,6.90424906297219,49.2404034908037,DE
829,897625345,THEODOR HEUSS STR. Nr. 10,10,,,7.00622249025888,49.21564906656489,DE
830,898867370,Eisstadion,527,Allgäuer Überlandwerk,,10.3025761421224,47.744983067126796,DE
831,902573125,Auf der Halde,420,Allgäuer Überlandwerk,,10.296697297408599,47.73884966888921,DE
832,902653985,Königsberger Straße,,Allgäuer Überlandwerk,,10.3022766438067,47.737109392220106,DE
833,902745433,Neuhauser Weg,530,Allgäuer Überlandwerk,,10.302665793987801,47.741311668929995,DE
834,903971639,Halde - Süd,,Allgäuer Überlandwerk,,10.2989752453061,47.74245303956761,DE
835,903971759,Halde - Nord,370,Allgäuer Überlandwerk,,10.2963288983106,47.7449924903934,DE
836,904061744,Heussring,340,Allgäuer Überlandwerk,,10.2979873679881,47.713837043779705,DE
837,905436897,Umspannwerk Ternberg,,,,14.352589727229901,47.9415337505083,AT
838,906011785,DVV,,DVV,,12.240406242339098,51.851334761405106,DE
839,906012210,Zur Großen Halle,,DVV,,12.242259915927901,51.851469988623506,DE
840,906780597,Isnyer Straße,,Allgäuer Überlandwerk,,10.286250519475,47.714780590538595,DE
841,906942512,Sportpark,323,Allgäuer Überlandwerk,,10.2915247980026,47.717677367563496,DE
842,907188334,Rebgarten,,,,8.005777457741031,48.7323730842727,DE
843,908327025,Buchenberger Weg,,Allgäuer Überlandwerk,,10.278802587454301,47.7120084690975,DE
844,908577540,Im Stiftallmey,,Allgäuer Überlandwerk,,10.2827814953423,47.7140636392018,DE
845,908663686,Buchauer Weg,,Allgäuer Überlandwerk,,10.2830841377615,47.7154023392879,DE
846,908808968,Emil-Marent-Straße,1448,Allgäuer Überlandwerk,,10.2756725875099,47.7069401900251,DE
847,910542599,Wirlings,,Allgäuer Überlandwerk,,10.274693423850199,47.693576072267106,DE
848,910542647,Wirlings Süd,,Allgäuer Überlandwerk,,10.2739443187348,47.690544078016394,DE
849,910781659,Waltenhofen Lanzen - Gewerbe,1006,Allgäuer Überlandwerk,,10.3025830591501,47.684062457831494,DE
850,910781676,Lanzen All-Vac,1012,Allgäuer Überlandwerk,,10.30184132022,47.6859144487809,DE
851,910781743,Lanzen,,Allgäuer Überlandwerk,,10.3012723273191,47.6827659524701,DE
852,913231519,Georg-Haindl-Straße,,Allgäuer Überlandwerk,,10.3176890391364,47.6929915519824,DE
853,914484771,Herzfelde Dorf,,EON_edis,,13.6041208885184,53.1952085835186,DE
854,914804240,TST Ulrichskirchen Parksiedlung,,EVN,,16.4956371693263,48.3954091744057,AT
855,916804844,Jakobgelände,471,Allgäuer Überlandwerk,,10.2944494430731,47.7233557412288,DE
856,918741172,Schule,1036,regionalwerk Bodensee,,9.5885924593584,47.665753879684495,DE
857,919809429,Mostall,,Energie AG,,13.9658855688364,48.150520656183794,AT
858,926525872,Göhlenbach,43,Allgäuer Überlandwerk,,10.2963254847125,47.7241540844755,DE
859,926525884,Krokusweg,,Allgäuer Überlandwerk,,10.299527439711198,47.722683385438096,DE
860,926844805,Röntgenweg,,Allgäuer Überlandwerk,,10.3035175765402,47.73043187138921,DE
861,926845651,Pettenkoferstraße,90,Allgäuer Überlandwerk,,10.3046037295502,47.7314348743066,DE
862,926846110,Reichelsberg,297,Allgäuer Überlandwerk,,10.300271693924099,47.7312043666108,DE
863,932123617,Trafostation,,E.ON edis AG,,14.4765234597837,52.2463388888033,DE
864,932123623,Trafostation,,E.ON edis AG,,14.556669442633801,52.241612790276896,DE
865,937222905,Sablière 2,,,,4.38387407741797,45.4347167503437,FR
866,937561597,Федеральная сетевая компания ЕЭС,,,,37.9317473508884,51.233853253013706,RU
867,938561732,Vogelpark,,LSW,,10.6010745431051,52.469277446106204,DE
868,938578121,2. Koppelweg Ost,,LSW,,10.5849030713604,52.468177750043296,DE
869,942304025,Heiligkreuz,,Allgäuer Überlandwerk,,10.2844973673665,47.748387835977205,DE
870,944218659,SSt Loeper Weg,MN11553,e.on Avacon,,10.517005258083199,51.9845933847317,DE
871,946558900,Neuhausen bei der Wagnerei,97,Allgäuer Überlandwerk,,10.289422740237802,47.750303679349095,DE
872,946558928,Neuhausen Süd,,Allgäuer Überlandwerk,,10.2916491248379,47.7512155812825,DE
873,946576253,Neuhausen am Bach,1642,Allgäuer Überlandwerk,,10.2944207868156,47.7525761566135,DE
874,949558402,Princip Street,3709,Western Power Distribution,,-1.89429917885271,52.488134694349796,GB
875,949776838,Zollhaus bei Hirschdorf,289,Allgäuer Überlandwerk,,10.2949356113049,47.758153074663,DE
876,949941568,Hinterbach,,Allgäuer Überlandwerk,,10.2930799614225,47.7623881930665,DE
877,950322098,Ajen,1580,Allgäuer Überlandwerk,,10.3050998690817,47.7634295885503,DE
878,954546276,Rückholz Frühlingsstraße,1116,Allgäuer Überlandwerk,,10.5444562460299,47.660563848372895,DE
879,954564622,Schippenschieß,,,,8.11253477324178,48.74081455053221,DE
880,957173587,Moos,,EW Gräbelesmühle,,10.3144744178921,47.7819377808428,DE
881,957173612,Lauben,,EW Gräbelesmühle,,10.297776892717,47.7807880404864,DE
882,958188023,Stielings Nordwest,,Allgäuer Überlandwerk,,10.3348029334457,47.7685487653057,DE
883,958312135,Schumacherring,,Allgäuer Überlandwerk,,10.330040155640802,47.7267496578893,DE
884,961427485,Gleichrichterwerk 210 Bernauer Straße,210,Berliner Verkehrsbetriebe,,13.3911216209954,52.5359989487403,DE
885,963946363,Gleichrichterwerk 602 Warschauer Platz,602,Berliner Verkehrsbetriebe,,13.4482586951472,52.50372426361079,DE
886,963946373,U-Bahn Gleichrichter Warschauer Brücke,,Berliner Verkehrsbetriebe,,13.448569781730098,52.5041617668111,DE
887,965373209,Holt Chromium sub station,2141,Western Power Distribution,,-1.89343688601148,52.4910429811605,GB
888,965974590,Edisonstraße,1424,Allgäuer Überlandwerk,,10.3239555967269,47.746223963758,DE
889,966029668,Eichbergweg,,Allgäuer Überlandwerk,,10.321080987817698,47.753429676458396,DE
890,966159605,Messerschmittstraße,,Allgäuer Überlandwerk,,10.3190795413647,47.75534847469339,DE
891,966851165,Hub,,Allgäuer Überlandwerk,,10.3183729265622,47.7611196623561,DE
892,966851260,Ursulasried Nord,,Allgäuer Überlandwerk,,10.317711586849999,47.7632080386302,DE
893,968992462,Feldweg,1495,Allgäuer Überlandwerk,,10.335586354204901,47.762943191943904,DE
894,969810560,Šiaulių pastotė,,,,23.293442788158004,55.916106157912296,LT
895,970440728,Hangenberg,1487,Allgäuer Überlandwerk,,10.325454884936,47.75498405885429,DE
896,972328085,Umspannstation Ilshofen Eckartshäuser Straße Ost,,Elektrizitätswerk Braunsbach-Tullau GmbH,,9.93419914266102,49.168365894493895,DE
897,972328153,Umspannstation Ilshofen Eckartshäuser Straße,,Elektrizitätswerk Braunsbach-Tullau GmbH,,9.9309832637754,49.1688415894668,DE
898,972328240,Umspannstation Ilshofen Abel,,Elektrizitätswerk Braunsbach-Tullau GmbH,,9.92796285829561,49.1695144501163,DE
899,976060404,TH Deutelhausen Ltg. Schechen,2143,Isar-Amperwerke,,12.102744994602599,47.8961149352002,DE
900,977664045,Zwingerstraße,408,Allgäuer Überlandwerk,,10.314572693584198,47.7254558453979,DE
901,980375510,Reisenbacher Grund,,EnBW,,9.11475764728624,49.491060358868104,DE
902,981304752,TrSt WAZ,,eon EDIS,,12.912501393573198,52.0016491645943,DE
903,981417584,Glockenschule,,Allgäuer Überlandwerk,,10.3091441743223,47.72726968761379,DE
904,987138573,Grünlandwerk,211,Allgäuer Überlandwerk,,10.2694668458641,47.709430234797104,DE
905,988046544,Am Leitenacker,1736,Allgäuer Überlandwerk,,10.3442562645066,47.7000400657067,DE
906,988046754,Heberlings,1047,Allgäuer Überlandwerk,,10.3408171542728,47.70675267473639,DE
907,988046839,Heberlingerstraße,656,Allgäuer Überlandwerk,,10.3372136523421,47.704932193855704,DE
908,988152300,Freitags,,Allgäuer Überlandwerk,,10.365839457017401,47.703370090176705,DE
909,988602499,TrSt Dorfstraße,,Eon_edis,,12.921459663081,51.9749961518566,DE
910,990017676,Kremserstraße,,Allgäuer Überlandwerk,,10.3241962553915,47.7021757505398,DE
911,990127665,Bittris,,Allgäuer Überlandwerk,,10.3493895973661,47.6802550383275,DE
912,990466047,Schlechtenberg,,Allgäuer Überlandwerk,,10.3835276442878,47.6801195615267,DE
913,990466487,Bodelsberg,,Allgäuer Überlandwerk,,10.411447013823699,47.682758453231706,DE
914,991797049,Bodelsberg Feuerwehr,652,Allgäuer Überlandwerk,,10.413859709013801,47.684824271238604,DE
915,993114417,Furtenbach,1524,Allgäuer Überlandwerk,,10.3733591644292,47.7034785442431,DE
916,993130959,Planoulet,,,,1.95525301498371,43.322568844256494,FR
917,993236315,Rößlings,,Allgäuer Überlandwerk,,10.3573524437076,47.7161514862084,DE
918,996414993,Oberhof,638,Allgäuer Überlandwerk,,10.3697877323542,47.6955145502838,DE
919,998745016,"Schöppenstedt, Am Papenberge",A901775,e.on Avacon,,10.784123170571801,52.147327785715106,DE
920,1003651338,UW Lieserbrücke,,,,13.4967233437146,46.81764073353539,AT
921,1005546182,Ermengerst an der Halde,1560,Allgäuer Überlandwerk,,10.2587040406136,47.723311445540894,DE
922,1005639026,Ermengerst - Mariabergstraße,196,Allgäuer Überlandwerk,,10.257627409745501,47.725441282195504,DE
923,1011303312,RWE Station Aussiedlerhof Stendenbach,,RWE,,7.97033793163571,50.991843674563796,DE
924,1012716160,See bei Sulzberg,,Allgäuer Überlandwerk,,10.333153536752501,47.68180374298839,DE
925,1012730437,Sulzberger Straße,1500,Allgäuer Überlandwerk,,10.3233454609859,47.699587658802606,DE
926,1039136338,Rosenau,585,Allgäuer Überlandwerk,,10.325144696668401,47.71610778878549,DE
927,1039136341,Füssener Straße Süd,88,Allgäuer Überlandwerk,,10.324530069350999,47.7190232875264,DE
928,1042145845,Horns Rev B Helideck,,Energinet.dk,,7.623805983590441,55.6001662772959,
929,1042145852,Horns Rev A Helideck,,Energinet.dk,,7.87491699569443,55.508949273320205,
930,1051519492,Waigolshausen 5,,,,10.1218949347555,49.9616776599719,DE
931,1051586787,Hergolshausen 1,,,,10.158748409118099,49.964555562175995,DE
932,1056067512,EVG,,,,13.443586916680601,48.7795561708116,DE
933,1060066127,Trafostation,,Osterholzer Stadtwerke,,8.7903384486118,53.2329936732674,DE
934,1067333733,Saint-Jean d'Août,006,ERDF,,-0.508936212304551,43.8936142725715,FR
935,1069313714,Umspannstation Schwarzwaldstraße,,,,7.9309728575703,48.650447285393895,DE
936,1092039330,Gölsdorf 1,,eon EDIS,,12.980288983565,51.955691273611706,DE
937,1092039426,TrSt Wittenberger Straße,,eon EDIS,,13.009766211466598,51.968621242806904,DE
938,1097406723,Trafostation Rombach,,,,8.737565030784099,49.4142170524007,DE
939,1102847695,Neuhausen a.d.F. Hochau WHB,NEUHF-E-UST-031,,,9.27061256430359,48.66442175705,DE
940,1106734518,St James Crescent,961267,,,-2.09422158095325,52.7593462527237,GB
941,1109268553,Great Haywood,8001,,,-2.00487307666957,52.801596259783295,GB
942,1138058093,Alpha Ventus,,,,6.62333329721403,53.99999997887961,
943,1138074873,BARD 1,,Bard Engineering GmbH,,6.01068972946138,54.3516113873437,
944,1145602743,Frajhajm 1,,,,15.53360707705,46.46447843352429,SI
945,1151045212,Frajhajm 3,,,,15.543237915211101,46.4700285811092,SI
946,1157316863,Stromverteiler,,,,11.410160978536801,48.0960899355171,DE
947,1157334071,7123,,,,11.4027459248556,48.092877956761896,DE
948,1163963898,Lobnica II,TP-183,,,15.505780054325399,46.5286344944646,SI
949,1172530193,Allemane 29,,,,4.39051406467206,45.4188974874873,FR
950,1172530200,P.L.M. Bellevue,,,,4.39164845721285,45.417770379156195,FR
951,1172683414,Seafield Street,,Scottish Power,,-3.14723017059623,55.967627981487205,GB
952,1179125533,TS Eberswalder Straße,,EON_edis,,13.751372011238999,52.8613336770828,DE
953,1181029590,Rabenhofstraße,,,,10.6168350356074,49.302002982710704,DE
954,1195292112,Rattys Riverside / Norwich,TG 23734 08159,UK Power Networks,,1.3041327171501202,52.6250573609029,GB
955,1199855056,Umspannstation Klotzberg,,,,8.16761497488757,48.68769584989511,DE
956,1201764977,Ettenbüttel - Bokelberge,,LSW,,10.4099259863846,52.5101668933722,DE
957,1201815682,Langevin 1,,ERDF,,5.72215355514804,45.1429753949374,FR
958,1209329083,Cadarese,,Enel Produzione,,8.355601012650371,46.29013315581079,IT
959,1216488667,Frajhajm 4,,,,15.556693959515,46.4584292531021,SI
960,1216489692,Frajhajm 7,,,,15.5444970837448,46.453538156220894,SI
961,1221348952,КТП,,Моршанские електросети,,41.8282284334825,53.4441958794658,RU
962,1223657102,Grasberg Heckenweg,64140,,,8.98987807856978,53.183007667829294,DE
963,1225301412,Station Katharina,,RWE,,7.05851279412678,51.4544164419809,DE
964,1228124682,Umspannwerk Feldheim,,Energiequelle GmbH,,12.840531337449901,52.001287642365206,DE
965,1232395575,Schalthaus Alt,,,,8.90476216641028,48.565707172917996,DE
966,1236427900,Lovrenc VI,,,,15.3944865161344,46.5380572695195,SI
967,1240808189,Miller Street Ind Units Substation,01437,Western Power Distribution,,-1.8916935255395901,52.4936131779611,GB
968,1243692957,Hofstraße Garnberg,,EnBW,,9.708783990101631,49.283621376803204,DE
969,1243842996,Umspannstation Dellmensingen Ersingerstraße,,EnBW,,9.883725861118311,48.301472041571294,DE
970,1248116078,Schaltstelle Brandrüttel,,Überlandwerke Achern,,8.16697582356292,48.6186125472231,DE
971,1254548458,Vurmat II,,,,15.4323158303901,46.595259768062,SI
972,1254549542,Vurmat III,,,,15.441668729802199,46.612129988815,SI
973,1254549572,Boč II,,,,15.473493255541198,46.6014105664203,SI
974,1256809325,Umspannstation Niederbiegen Sägewerk,,EnBW,,9.62662362505841,47.8270850664126,DE
975,1258873633,Rothalde,,E-Werk Mittelbaden,,8.21218542669833,48.233536138766496,DE
976,1259172820,Sankt Peter Olsdorf,005,,,8.64904109009971,54.3065655833687,DE
977,1259895028,Umspannwerk Griesbacher,,EVU Lugitsch,,15.6660723793517,46.928985364995604,AT
978,1259895029,Trafo bei KB5,,EVU Lugitsch,,15.6636261770015,46.93040674077379,AT
979,1260245634,Gleichrichterwerk 505 Möllendorffstraße,505,Berliner Verkehrsbetriebe,,13.4802345870115,52.523617478899205,DE
980,1261360360,Križ,,,,15.554840824915301,46.61784177825751,SI
981,1263754810,Poststraße,SN450054,EON_Westfalen_Weser,,9.375318397189991,52.335639657732294,DE
982,1263754837,Buchenallee,SN450037,EON_Westfalen_Weser,,9.37950104298439,52.335135488498494,DE
983,1263755053,Dorfstraße 5a,SN450049,EON_Westfalen_Weser,,9.40310903814563,52.3408075412467,DE
984,1263946416,Station Electrique,,ERDF,,4.559762233754941,47.8524835652549,FR
985,1265276868,Trafostation Schwalbenweg,,Stadtwerke Witten,,7.338438257115719,51.455800461111004,DE
986,1277244058,Padeški vrh,,,,15.3746869286202,46.4188108364853,SI
987,1279663693,Waakhausen Feuerwehr,51163,EWE,,8.85703521435418,53.199172361453,DE
988,1279663699,Waakhausen Viehland,51164,EWE,,8.84132844110593,53.1942169897629,DE
989,1279663703,Worphausen Kleine Wende,64377,EWE,,8.94000621910978,53.194372847755204,DE
990,1279663708,Worpswede Osterholzer Straße,411/,EWE,,8.89874309468057,53.213742778251294,DE
991,1279663711,Waakhausen Semkenfahrt,51161,EWE,,8.88161752227258,53.2073675594176,DE
992,1279663715,Sankt Jürgen Moorhausen,51165,EWE,,8.82163036321882,53.190672089998706,DE
993,1279663718,Trafo-Station Extra-Markt,,Osterholzer Stadtwerke,,8.79808327383384,53.224127140963496,DE
994,1279663721,Lüninghauser Straße Nr. 114a,22832,EWE,,8.91954619019868,53.1864450604764,DE
995,1279663724,Sankt Jürgen Mittelbauer,51586,EWE,,8.844442271375279,53.1841548776554,DE
996,1279663730,Waakhausen Waakhauserstraße,51162,EWE,,8.866039477604552,53.202204143703796,DE
997,1279663731,Frankenburg Hauptstraße,51583,EWE,,8.900231872600939,53.1728860646946,DE
998,1280659899,Trafostation Scharmbeckstoteler Straße 39,,Osterholzer Stadtwerke,,8.75108260968495,53.20854967967811,DE
999,1280659925,Sankt Jürgen Niederende,51580,EWE,,8.812242429510599,53.186004851023995,DE
1000,1280659971,Trafostation Scharmbeckstoteler Straße 124a,,Osterholzer Stadtwerke,,8.75095118615888,53.215129079725706,DE
1001,1280659974,Trafostation Westerbeck,,Stadtwerke,,8.77927848066525,53.245931252985,DE
1002,1280659979,OHZ Tietjens Hütte,64418,EWE,,8.81994799835472,53.203934265304795,DE
1003,1280659990,Trafostation Hördorfer Weg,,Stadtwerke,,8.753639484478139,53.2335724472153,DE
1004,1280660004,Trafostation Halenbeck,,Osterholzer Stadtwerke,,8.75963367287448,53.2258260462319,DE
1005,1280679259,Buschhausen Am Kohlgarten,50292,Osterholzer Stadtwerke,,8.76337551535895,53.2383927860638,DE
1006,1280679284,Freißenbüttel Kattenhorner Weg,50608,EWE,,8.78436932321188,53.253589477283604,DE
1007,1280679288,OHZ-Westerbeck Lange Reihe,,EWE,,8.779235451363139,53.2458927654441,DE
1008,1281202470,Station Schmiedebach,,E.ON Thüringer Energie AG,,11.4514521304029,50.4965179512182,DE
1009,1282074765,Trafostation An der Handloge,,Osterholzer Stadtwerke,,8.7856454699045,53.222842779776705,DE
1010,1282074791,Trafostation Gymnasium,,Osterholzer Stadtwerke,,8.786222188316911,53.22683465531839,DE
1011,1283294814,Trafostation Hinter der Wurth,,Osterholzer Stadtwerke,,8.78708313368521,53.22905845896089,DE
1012,1283295322,Trafostation Am Wasserturm,,Osterholzer Stadtwerke,,8.7887784342894,53.2315436929554,DE
1013,1283295658,Trafostation Barkhof,,Osterholzer Stadtwerke,,8.78903283717786,53.226455683525295,DE
1014,1283295800,Trafostation Am Weißen Sande,,Osterholzer Stadtwerke,,8.790526645663821,53.2275444587957,DE
1015,1283295835,Trafostation Haus am Markt,,Osterholzer Stadtwerke,,8.78713649361308,53.2282627470712,DE
1016,1283295909,Trafostation Katrepel,,Osterholzer Stadtwerke,,8.783051764184659,53.2302948831901,DE
1017,1285128199,Trafostation Knorrenkamp,,Osterholzer Stadtwerke,,8.79716789055932,53.2366057743728,DE
1018,1285128210,Trafostation Pappstraße,,Osterholzer Stadtwerke,,8.796974752773231,53.225020271233504,DE
1019,1285128320,Trafostation Käthe-Kollwitz-Straße,,Osterholzer Stadtwerke,,8.79178734133356,53.237870690446606,DE
1020,1285128491,Trafostation Am Osterholze,,Osterholzer Stadtwerke,,8.79885501649442,53.233510558996,DE
1021,1286542542,20KV Umspannstation RMA,,,,7.931909441085531,48.6535826839796,DE
1022,1286665459,Trafostation Unter den Linden,,Osterholzer Stadtwerke,,8.81687935334417,53.2483916423291,DE
1023,1286665471,Trafostation Rathaus,,Osterholzer Stadtwerke,,8.7951025738896,53.22799074863111,DE
1024,1286665476,Trafostation Siemensstraße,,Osterholzer Stadtwerke,,8.812574177345029,53.2513626481554,DE
1025,1286665497,Trafostation Im Dorfe,,Osterholzer Stadtwerke,,8.811345371867882,53.244615669001504,DE
1026,1286665505,Trafostation Amtslinde,,Osterholzer Stadtwerke,,8.812579836731311,53.225354188641795,DE
1027,1286665515,Trafostation Albert-Schweitzer-Straße,,Osterholzer Stadtwerke,,8.81021672854491,53.233828548426104,DE
1028,1286665521,Trafostation Myhle,,Osterholzer Stadtwerke,,8.81457023390634,53.2561984492848,DE
1029,1286670818,Trafostation Zum Heuweg,4/0796,Osterholzer Stadtwerke,,8.81416707000682,53.2598222411645,DE
1030,1286856825,Trafostation Mensingstraße,,Osterholzer Stadtwerke,,8.76890329845978,53.2301760443311,DE
1031,1286856877,Trafostation Dobben,,Osterholzer Stadtwerke,,8.78690553675354,53.232855592262,DE
1032,1286856895,Trafostation Sandbeckstraße,,Osterholzer Stadtwerke,,8.78090838391675,53.2349986474634,DE
1033,1286856907,Trafostation Amselstraße,,Osterholzer Stadtwerke,,8.77738941345427,53.2290058672548,DE
1034,1289076413,Lützowstraße 3,,RWE,,7.0187621631414405,51.465416961661504,DE
1035,1289076446,Beisingstraße 22,,RWE,,7.01660494881815,51.4654588785772,DE
1036,1289076460,Beisingstraße 13,,RWE,,7.0153370666261505,51.4656109879691,DE
1037,1289076484,Beisingstraße 10,,RWE,,7.01446076006649,51.46544858123429,DE
1038,1289357316,Trafostation Wienbeck,,Osterholzer Stadtwerke,,8.78412201701416,53.2155916902339,DE
1039,1289357435,Trafostation Dresdener Straße,,Osterholzer Stadtwerke,,8.782416116289621,53.21735198512901,DE
1040,1289357460,Trafostation Bremer Straße 43,,Osterholzer Stadtwerke,,8.794483095669671,53.2180329537571,DE
1041,1289357643,Trafostation Lange Straße 89,,Osterholzer Stadtwerke,,8.792028898313461,53.2184617540399,DE
1042,1289357650,Trafostation Mozartstraße I,,Osterholzer Stadtwerke,,8.779385290352531,53.2182287436812,DE
1043,1289357745,Trafostation Theresienstraße,,Osterholzer Stadtwerke,,8.789652764555429,53.216352888814605,DE
1044,1291914715,HE Vuhred,,,,15.2753553567526,46.5859384812286,SI
1045,1291995946,Trafostation Industriestraße II,,Osterholzer Stadtwerke,,8.81774047837552,53.2354531934406,DE
1046,1291996361,Trafostation Industriestraße I,,Osterholzer Stadtwerke,,8.81412457969389,53.2366477650033,DE
1047,1291996378,Trafostation Horster Feld,,Osterholzer Stadtwerke,,8.815106528130961,53.240061879425795,DE
1048,1291996511,Trafostation W.R.P.,,Osterholzer Stadtwerke,,8.81094885550147,53.2246252568611,DE
1049,1291996605,Trafostation Kantstraße,,Osterholzer Stadtwerke,,8.812064652915868,53.229506668886096,DE
1050,1292131073,La Grande salle,,,,0.11082803121073499,47.9952929788204,FR
1051,1293069958,Magistrates Court substation,,,,-3.1660530199020296,51.4816901418757,GB
1052,1293358105,B-0,,,,12.6299999216755,54.612808256845504,
1053,1293754732,OHZ-Hülseberg Dorfstraße,51372,Osterholzer Stadtwerke,,8.76027767510167,53.2730662933324,DE
1054,1293754733,Hambergen Windhornsweg,51720,EWE,,8.826892334827079,53.304531875593604,DE
1055,1293754735,Hambergen Grüne Grund,64269,EWE,,8.82621545426049,53.28620399338389,DE
1056,1293754736,Hambergen Am Jantzen Park,64238,EWE,,8.817417893357,53.291244950331496,DE
1057,1293754738,OHZ-Ohlenstedt Im Pesch,51193,Osterholzer Stadtwerke,,8.76159873755849,53.30733628899961,DE
1058,1293754739,Hambergen Papenbüttel,64251,EWE,,8.8181175911318,53.294262752927104,DE
1059,1293754740,OHZ-Ohlenstedt Alt Ohlenstedt,51195,Osterholzer Stadtwerke,,8.75733793833439,53.299747978514006,DE
1060,1293754743,Freißenbüttel An der Wassermühle,64490,EWE,,8.78981589861103,53.262818083533105,DE
1061,1293754745,OHZ-Ohlenstedt Vorwohlde,21679,Osterholzer Stadtwerke,,8.787248333865959,53.29549025990521,DE
1062,1293754746,Vollersode-Wallhöfen Denkmal,64770,EWE,,8.879745523052009,53.319036185216504,DE
1063,1293754747,Hambergen Bahn,64243,EWE,,8.80406048407131,53.2909884946696,DE
1064,1293754750,OHZ-Hülseberg Hagenberg,,Osterholzer Stadtwerke,,8.75635841534858,53.280325052412,DE
1065,1293754752,Hambergen Ackerkamp,64237,EWE,,8.834562510049,53.3090697854558,DE
1066,1293754763,Hambergen Im Bruch,64249,EWE,,8.815450133727131,53.2879846914462,DE
1067,1296654742,Trafostation Mozartstraße II,,Osterholzer Stadtwerke,,8.77937415124301,53.222206850496505,DE
1068,1296654784,Trafostation Am Pumpelberg I,,Osterholzer Stadtwerke,,8.77666016110663,53.2313815712856,DE
1069,1296654900,Trafo-Station Lidl-Markt,,Osterholzer Stadtwerke,,8.77684790900101,53.2327317598912,DE
1070,1296654927,Trafostation Auf der Heide 10,,Osterholzer Stadtwerke,,8.76936727830403,53.2083121499391,DE
1071,1296655112,Trafostation Brockenacker 52,,Osterholzer Stadtwerke,,8.75959594363255,53.2063056570646,DE
1072,1296655288,Trafostation Auf der Heide 25-27,,Osterholzer Stadtwerke,,8.76623727835957,53.207337053698,DE
1073,1296655441,Trafostation Am Eichhof,,Osterholzer Stadtwerke,,8.77745678710058,53.2256464785186,DE
1074,1296655598,Trafostation Hauptstraße 52,,Stadtwerke,,8.75647654380844,53.203576667368495,DE
1075,1297570290,OHZ Bargten Lange Reihe,64517,Osterholzer Stadtwerke,,8.76260592865505,53.241354648199206,DE
1076,1297570320,Sandhausen Altendamm,51733,EWE,,8.84132179357283,53.2547578538002,DE
1077,1297570353,Freißenbüttel Am Schafkamp,64498,EWE,,8.7886968672616,53.2586216529627,DE
1078,1297570391,Trafostation Hinterm Mühlenberg,4/0795,EWE,,8.81292703558863,53.2628264657725,DE
1079,1297570407,Trafostation Hinter dem Gartel,,Stadtwerke,,8.76445061909099,53.2266841855798,DE
1080,1297570410,Sandhausen Sandhausener Straße,51734,EWE,,8.82205275106541,53.261606241592,DE
1081,1297570411,Trafostation Am Binnenfeld,,Osterholzer Stadtwerke,,8.814744417239929,53.2347227667789,DE
1082,1297570427,Trafostation Bargten,,Osterholzer Stadtwerke,,8.76794326891564,53.233517280136205,DE
1083,1297570446,Hambergen Gartenstraße,64265,EWE,,8.81929393499635,53.2729676643416,DE
1084,1297570448,Sandhausen Hinterm Torfwerk,64503,Osterholzer Stadtwerke,,8.82031073806645,53.266313979604995,DE
1085,1297570459,Trafostation Wiste,,Stadtwerke,,8.79823472979074,53.2446030902882,DE
1086,1297570463,Trafostation Sandhausener Ring,4/0793,EWE,,8.81364622680509,53.265882488528604,DE
1087,1297570498,Trafostation Neuendammer Straße / Feuerwehr,,Osterholzer Stadtwerke,,8.815100509418551,53.2428887490906,DE
1088,1297590021,Hambergen Heidreeg,64267,EWE,,8.82413369842108,53.274572774537,DE
1089,1298753237,Trafostation Beermann / Bahn,,Osterholzer Stadtwerke,,8.80219162895423,53.2384857421792,DE
1090,1298753242,Teufelsmoor Hamme,51817,EWE,,8.915346117087779,53.26441325857929,DE
1091,1298753260,Trafostation Stubbenkuhle,,Osterholzer Stadtwerke,,8.81999309378198,53.24971936494509,DE
1092,1298753276,Teufelsmoor Teufelsmoorstraße,407/124/136,EWE,,8.9028512701379,53.265096756326706,DE
1093,1298753283,Teufelsmoor Teufelsmoorstraße 11,51820,EWE,,8.87877363574612,53.253544493612296,DE
1094,1300468101,Heilshorn Alt Heilshorn,50292,EWE,,8.71831143929957,53.237421170211896,DE
1095,1300468115,Heilshorn Industriepark 1,64520,EWE,,8.69883865888571,53.229317544766396,DE
1096,1300468129,Brundorf Gewerbegebiet,50165,EWE,,8.69268349239045,53.2303440856075,DE
1097,1300468137,Trafostation Vrampe,,Osterholzer Stadtwerke,,8.764525628417209,53.232234168455705,DE
1098,1300468146,Heilshorn Feldhorst,50290,EWE,,8.73157488480654,53.2308503563786,DE
1099,1300766658,Trafostation Krankenhaus I,,Osterholzer Stadtwerke,,8.79436406889453,53.2340993806454,DE
1100,1304833761,Trafostation Im Steenesch,,Osterholzer Stadtwerke,,8.790236938984691,53.2212030805919,DE
1101,1305354769,Grądy kol.II,S6-1640,,,19.867455233936802,53.3546094851824,PL
1102,1305357086,Grądy,S6-0599,,,19.861807525745498,53.35680337898,PL
1103,1306018475,Gießen,3045,regionalwerk Bodensee,,9.59999926683615,47.6265989910919,DE
1104,1306028867,TS Pakoštane-5,,,,15.506552874964301,43.9075531611508,
1105,1306144137,Trafostation Am Acker,,Osterholzer Stadtwerke,,8.74991048790223,53.20209335198629,DE
1106,1306144149,Trafostation Am Fuhrenkamp 20,,Osterholzer Stadtwerke,,8.749483967805329,53.2004979517849,DE
1107,1306144180,Platjenwerbe Lindenhof,40612,EWE,,8.68059423479136,53.1818773850155,DE
1108,1306144242,Trafostation Am Fuhrenkamp 58,,Osterholzer Stadtwerke,,8.74971995523047,53.201237087542296,DE
1109,1306144265,Trafostation Am Rosenmoor,,Osterholzer Stadtwerke,,8.76616155038112,53.202062842512206,DE
1110,1306201949,Trafostation Werschenreger Straße 90,,Osterholzer Stadtwerke,,8.746681044455821,53.2055554712431,DE
1111,1306201982,Trafostation Oberstacker 19,,Osterholzer Stadtwerke,,8.76090433984387,53.2055314745495,DE
1112,1306715179,Schule,1503,Allgäuer Überlandwerk,,10.3463897633063,47.6978883923549,DE
1113,1308194810,Westerbeck Militär Anlage,64524,Osterholzer Stadtwerke,,8.7580076323787,53.24832327172271,DE
1114,1308194813,Heilshorn Am Waldberg,64430,EWE,,8.70615579620098,53.254153892039604,DE
1115,1308194824,Heilshorn Heidhofweg,64481,EWE,,8.70156423728926,53.248138853292104,DE
1116,1308194837,Heilshorn Am Sportplatz,64429,EWE,,8.71151532484909,53.253852875346006,DE
1117,1308194849,OHZ-Garlstedt Garlstedter Kirchweg 4,24384,Osterholzer Stadtwerke,,8.75820616005649,53.248206955439905,DE
1118,1308194851,OHZ-Heilshorn Hasenheide,64790,EWE,,8.7184063912251,53.25271365765929,DE
1119,1308194859,Heilshorn Fasanenweg,64513,EWE,,8.71015734163409,53.248764453713996,DE
1120,1308194865,Heilshorn Stundenweg,50247,EWE,,8.7091013720176,53.2404740622408,DE
1121,1308194882,Heilshorn Erikaweg,,EWE,,8.715087116250281,53.25173484244429,DE
1122,1309360148,Osterhagen,2966,Osterholzer Stadtwerke,,8.71569374856164,53.1895181649917,DE
1123,1309360149,Auf den Äckern,2965,Osterholzer Stadtwerke,,8.70990266925104,53.1919943909906,DE
1124,1310266454,Trafostation Krankenhaus II,,Osterholzer Stadtwerke,,8.79431124795582,53.234250792153794,DE
1125,1313449958,Salmengrund,,,,7.936755941874879,48.6821940869339,DE
1126,1313604119,Trafo,,,,19.826809611433898,51.74263857175839,PL
1127,1313604122,Trafo,6_0491,,,19.8295286321358,51.746059047754095,PL
1128,1319466458,Schmitzkühlken,197,Stadtwerke Münster,,7.6553663148043505,51.9209626789735,DE
1129,1339469706,Brde Vinarnik,,,,15.1417908758692,46.4731432763286,SI
1130,1348185783,Pémégnan,284,ERDF,,-0.45566189387442796,43.895799432187395,FR
1131,1349426485,Trafostation Berufsschule,,Osterholzer Stadtwerke,,8.80230796078352,53.22121087935571,DE
1132,1349426492,Trafostation Post,,Osterholzer Stadtwerke,,8.80026411384909,53.2229322738025,DE
1133,1351756680,Slivniško Pohorje,,,,15.587710540487402,46.482791550306,SI
1134,1356835450,Mežica-Tenis,,,,14.850523284103,46.519942576558,SI
1135,1363746755,Hudi kot,,,,15.2307551707059,46.552910993259104,SI
1136,1372667622,Unterwengen bei Haldenwang,1717,EW Gräbelesmühle,,10.3246815253079,47.7927020453238,DE
1137,1372930876,Trafostation Grüne Straße,2831,Osterholzer Stadtwerke,,8.73957294510717,53.183859074763795,DE
1138,1372930957,Trafostation Schillerstraße,,Osterholzer Stadtwerke,,8.74082735256991,53.1843886654673,DE
1139,1374133204,Trafostation Heilshorn,2813,Osterholzer Stadtwerke,,8.758365431356362,53.18890838443911,DE
1140,1374133448,Trafostation LINPAC Plastics,2812,Osterholzer Stadtwerke,,8.758963439841,53.18947386751739,DE
1141,1374133539,Trafostation Elsterstraße,2842,Osterholzer Stadtwerke,,8.74623107833,53.1910856632849,DE
1142,1374133574,Trafostation Am Sande,2844,Osterholzer Stadtwerke,,8.746076478269611,53.1945606731048,DE
1143,1374155394,Trafostation,2819,Osterholzer Stadtwerke,,8.75327719392405,53.186357643356104,DE
1144,1374155402,Trafostation Riesstraße,2874,Osterholzer Stadtwerke,,8.74845458832126,53.1772936633956,DE
1145,1374155418,Trafostation Hegelstraße,2802,Osterholzer Stadtwerke,,8.74939719054888,53.1797738793355,DE
1146,1374155423,Trafostation Goethestraße,2804,Osterholzer Stadtwerke,,8.75430172250559,53.180889574411104,DE
1147,1374155436,Trafostation Hauptstraße 23 / Am Kreuzacker,,Stadtwerke,,8.75507660926967,53.200645392521295,DE
1148,1374155442,Trafostation Rathausstraße,2801,Osterholzer Stadtwerke,,8.749425577311861,53.1797498682076,DE
1149,1374159785,Trafostation Haydnstraße,2824,Osterholzer Stadtwerke,,8.74861556642017,53.1834163624934,DE
1150,1374183043,Trafostation Lehmbarg,2872,Osterholzer Stadtwerke,,8.73295811068102,53.178510369689,DE
1151,1374183091,Trafostation Kolde Würde,2871,Osterholzer Stadtwerke,,8.73473372067162,53.1772405774113,DE
1152,1374183093,Trafostation Schüttenbarg,2869,Osterholzer Stadtwerke,,8.73483298451051,53.1788914884748,DE
1153,1374183204,Trafostation Erbrichterweg,2870,Osterholzer Stadtwerke,,8.7359326122498,53.177790277982396,DE
1154,1374183236,Trafostation Ringstraße,2833,Osterholzer Stadtwerke,,8.73196035189495,53.1757519895115,DE
1155,1374469219,Trafostation Struckbergstraße,2832,Osterholzer Stadtwerke,,8.73316535201707,53.180408446581794,DE
1156,1374526381,Trafostation Bachstraße,2877,Osterholzer Stadtwerke,,8.7472807597395,53.181815691259395,DE
1157,1374744253,Unterkürnach,1677,Allgäuer Überlandwerk,,10.163540831327301,47.744510693502995,DE
1158,1375138509,Trafostation Ulmenstraße,2846,Osterholzer Stadtwerke,,8.750635248673461,53.191882980847204,DE
1159,1375138650,Trafostation Vor Vierhausen,2845,Osterholzer Stadtwerke,,8.74843266942832,53.1930040658527,DE
1160,1375862906,Ulmerthal,,EnBW,,10.1409733547597,47.7326670913261,DE
1161,1376869921,Pohorje Ledina,,,,15.5712855641695,46.500472053867206,SI
1162,1378081043,Claddoch Power Station,,Scottish Hydro,,-5.15535658589877,55.5921004553165,
1163,1382927356,Rozvodna,,,,15.289266667242401,50.7414898827178,CZ
1164,1384421237,1084,,EON,,27.903545173130603,43.217598663660496,BG
1165,1385310874,Trafostation Am Denkmal,2850,Osterholzer Stadtwerke,,8.709574694340809,53.187111663986705,DE
1166,1386132052,Couturelles 2 Chantegrive,035,ERDF,,-0.479668741021823,43.874956039970506,FR
1167,1388394504,Stat. Querstraße,,EON_edis,,14.0700803501577,52.3511280531791,DE
1168,1388668850,Umspannstation Münstertal Süssenbrunn,,,,7.7825430553653705,47.8474771920267,DE
1169,1388728554,P82 BUFFON,,EDF,,-1.0676240894840798,45.16805575365439,FR
1170,1389569989,Bricomarché,203,EDF,,-0.497453766679879,43.882628934650604,FR
1171,1397598542,Wassertrüdingen 02,,N-Ergie AG,,10.595135062109598,49.0398868504153,DE
1172,1397636611,Station 15,,,,10.5963459911126,49.0370949710706,DE
1173,1398439189,Kapelari,,,,15.0771881728857,46.61638997729529,SI
1174,1398633004,Umspannstation Eisenbach,,EnBW,,10.116483483484,47.717250860211294,DE
1175,1401209388,Sägemühle,,EnBW,,10.1448058372563,47.7025877512333,DE
1176,1402696680,Beckedorf Auetal,22875,EWE,,8.58584065727466,53.192031473819505,DE
1177,1402696746,Löhnhorst Am Fosshall,50729,EWE,,8.624534240665179,53.20323397103029,DE
1178,1402697061,Beckedorfer Feld,51780,EWE,,8.59159921757198,53.191997781729604,DE
